[
  {
    "osm_id": 182561,
    "category": "shopping",
    "subcategory": "supermarket",
    "lat": 11.4752621,
    "lon": 104.9479077,
    "name": "AEON Maxvalu Express Takhmao",
    "name_en": "",
    "operator": "",
    "brand": "",
    "opening_hours": "",
    "address": "",
    "city": ""
  },
  {
    "osm_id": 182562,
    "category": "shopping",
    "subcategory": "supermarket",
    "lat": 11.559452,
    "lon": 104.848012,
    "name": "AEON Maxvalu Express Bodaiju",
    "name_en": "",
    "operator": "",
    "brand": "",
    "opening_hours": "",
    "address": "",
    "city": ""
  },
  {
    "osm_id": 182563,
    "category": "shopping",
    "subcategory": "supermarket",
    "lat": 11.509561,
    "lon": 104.937735,
    "name": "AEON Maxvalu Express Chak Angre Krom2",
    "name_en": "",
    "operator": "",
    "brand": "",
    "opening_hours": "",
    "address": "",
    "city": ""
  },
  {
    "osm_id": 182566,
    "category": "shopping",
    "subcategory": "supermarket",
    "lat": 11.5534447,
    "lon": 104.9216423,
    "name": "AEON Maxvalu Express De Castle Royal",
    "name_en": "",
    "operator": "",
    "brand": "",
    "opening_hours": "",
    "address": "",
    "city": ""
  },
  {
    "osm_id": 182568,
    "category": "shopping",
    "subcategory": "supermarket",
    "lat": 11.5545483,
    "lon": 104.9246626,
    "name": "AEON Maxvalu Express BKK 57",
    "name_en": "",
    "operator": "",
    "brand": "",
    "opening_hours": "24/7",
    "address": "",
    "city": ""
  },
  {
    "osm_id": 182569,
    "category": "shopping",
    "subcategory": "supermarket",
    "lat": 11.6316836,
    "lon": 104.8834438,
    "name": "AEON Maxvalu Express Russey Keo",
    "name_en": "",
    "operator": "",
    "brand": "",
    "opening_hours": "",
    "address": "",
    "city": ""
  },
  {
    "osm_id": 182570,
    "category": "shopping",
    "subcategory": "supermarket",
    "lat": 11.5744311,
    "lon": 104.8904018,
    "name": "AEON Maxvalu Express Toul Kork",
    "name_en": "",
    "operator": "",
    "brand": "",
    "opening_hours": "",
    "address": "",
    "city": ""
  },
  {
    "osm_id": 182571,
    "category": "shopping",
    "subcategory": "supermarket",
    "lat": 11.5490941,
    "lon": 104.9273033,
    "name": "AEON Maxvalu Express BKK 1",
    "name_en": "",
    "operator": "",
    "brand": "",
    "opening_hours": "",
    "address": "",
    "city": ""
  },
  {
    "osm_id": 390754588,
    "category": "shopping",
    "subcategory": "supermarket",
    "lat": 16.4248983,
    "lon": 102.819077,
    "name": "Big C",
    "name_en": "Big C",
    "operator": "",
    "brand": "Big C",
    "opening_hours": "",
    "address": "",
    "city": ""
  },
  {
    "osm_id": 418650592,
    "category": "shopping",
    "subcategory": "supermarket",
    "lat": 14.8722839,
    "lon": 103.5096438,
    "name": "บิ๊กซี",
    "name_en": "Big C",
    "operator": "",
    "brand": "",
    "opening_hours": "",
    "address": "",
    "city": ""
  },
  {
    "osm_id": 418650593,
    "category": "shopping",
    "subcategory": "supermarket",
    "lat": 14.8713012,
    "lon": 103.510851,
    "name": "Makro",
    "name_en": "",
    "operator": "",
    "brand": "",
    "opening_hours": "",
    "address": "",
    "city": ""
  },
  {
    "osm_id": 420531062,
    "category": "shopping",
    "subcategory": "supermarket",
    "lat": 20.4368297,
    "lon": 106.2898302,
    "name": "Chợ Thẫm",
    "name_en": "",
    "operator": "",
    "brand": "",
    "opening_hours": "",
    "address": "",
    "city": ""
  },
  {
    "osm_id": 441023494,
    "category": "shopping",
    "subcategory": "supermarket",
    "lat": 11.5299867,
    "lon": 104.9306176,
    "name": "Kbal Knol Market",
    "name_en": "",
    "operator": "",
    "brand": "",
    "opening_hours": "",
    "address": "",
    "city": ""
  },
  {
    "osm_id": 442782103,
    "category": "shopping",
    "subcategory": "supermarket",
    "lat": 18.6643627,
    "lon": 105.6890298,
    "name": "Intimex",
    "name_en": "",
    "operator": "",
    "brand": "",
    "opening_hours": "",
    "address": "",
    "city": ""
  },
  {
    "osm_id": 442977400,
    "category": "shopping",
    "subcategory": "supermarket",
    "lat": 21.0115759,
    "lon": 105.8495236,
    "name": "WinMart",
    "name_en": "",
    "operator": "",
    "brand": "WinMart",
    "opening_hours": "Mo-Su 09:00-21:00",
    "address": "",
    "city": ""
  },
  {
    "osm_id": 444148025,
    "category": "shopping",
    "subcategory": "supermarket",
    "lat": 20.8650971,
    "lon": 106.6864368,
    "name": "DafjCo",
    "name_en": "DafjCo furniture store",
    "operator": "",
    "brand": "",
    "opening_hours": "",
    "address": "",
    "city": ""
  },
  {
    "osm_id": 445211391,
    "category": "shopping",
    "subcategory": "supermarket",
    "lat": 11.5553367,
    "lon": 104.9222996,
    "name": "Lucky",
    "name_en": "",
    "operator": "",
    "brand": "",
    "opening_hours": "",
    "address": "",
    "city": ""
  },
  {
    "osm_id": 445355336,
    "category": "shopping",
    "subcategory": "supermarket",
    "lat": 11.56896,
    "lon": 104.9145097,
    "name": "Sydney Super Market",
    "name_en": "Sydney super market (closed)",
    "operator": "",
    "brand": "",
    "opening_hours": "",
    "address": "",
    "city": ""
  },
  {
    "osm_id": 446043788,
    "category": "shopping",
    "subcategory": "marketplace",
    "lat": 20.622683,
    "lon": 105.231634,
    "name": "chợ Lo",
    "name_en": "",
    "operator": "",
    "brand": "",
    "opening_hours": "",
    "address": "",
    "city": ""
  },
  {
    "osm_id": 456715422,
    "category": "shopping",
    "subcategory": "supermarket",
    "lat": 14.6014269,
    "lon": 108.2896396,
    "name": "Kon Plong",
    "name_en": "",
    "operator": "",
    "brand": "",
    "opening_hours": "",
    "address": "",
    "city": ""
  },
  {
    "osm_id": 473274128,
    "category": "shopping",
    "subcategory": "supermarket",
    "lat": 17.9572203,
    "lon": 102.6179415,
    "name": "Simuang Market",
    "name_en": "",
    "operator": "",
    "brand": "",
    "opening_hours": "",
    "address": "",
    "city": ""
  },
  {
    "osm_id": 477604691,
    "category": "shopping",
    "subcategory": "marketplace",
    "lat": 10.2206293,
    "lon": 103.9591854,
    "name": "Chợ Dương Đông",
    "name_en": "Duong Dong Market",
    "operator": "",
    "brand": "",
    "opening_hours": "06:00-17:00",
    "address": "",
    "city": ""
  },
  {
    "osm_id": 513638541,
    "category": "shopping",
    "subcategory": "supermarket",
    "lat": 17.9257372,
    "lon": 102.6163307,
    "name": "Mavilay Minimart",
    "name_en": "Mavilay Minimart",
    "operator": "",
    "brand": "",
    "opening_hours": "",
    "address": "",
    "city": ""
  },
  {
    "osm_id": 527852488,
    "category": "shopping",
    "subcategory": "supermarket",
    "lat": 17.9663394,
    "lon": 102.6146106,
    "name": "Sisomphone-Am Supermarket",
    "name_en": "M Supermarket",
    "operator": "",
    "brand": "",
    "opening_hours": "",
    "address": "",
    "city": ""
  },
  {
    "osm_id": 528857526,
    "category": "shopping",
    "subcategory": "supermarket",
    "lat": 17.9653989,
    "lon": 102.6154619,
    "name": "Sayam",
    "name_en": "Sayam",
    "operator": "",
    "brand": "",
    "opening_hours": "",
    "address": "",
    "city": ""
  },
  {
    "osm_id": 568954855,
    "category": "shopping",
    "subcategory": "marketplace",
    "lat": 13.3188037,
    "lon": 103.8510317,
    "name": "Banteay Chey Market",
    "name_en": "",
    "operator": "",
    "brand": "",
    "opening_hours": "",
    "address": "",
    "city": ""
  },
  {
    "osm_id": 570497069,
    "category": "shopping",
    "subcategory": "marketplace",
    "lat": 13.4444713,
    "lon": 103.9374666,
    "name": "Preah Dak Market",
    "name_en": "",
    "operator": "",
    "brand": "",
    "opening_hours": "",
    "address": "",
    "city": ""
  },
  {
    "osm_id": 614140693,
    "category": "shopping",
    "subcategory": "marketplace",
    "lat": 17.9999143,
    "lon": 102.6264532,
    "name": "Tradition Market Phonsawang",
    "name_en": "",
    "operator": "",
    "brand": "",
    "opening_hours": "",
    "address": "",
    "city": ""
  },
  {
    "osm_id": 635764099,
    "category": "shopping",
    "subcategory": "marketplace",
    "lat": 16.7181024,
    "lon": 102.8028834,
    "name": "ตลาดสดเทศบาลตำบลน้ำพอง",
    "name_en": "Nam Phong Subdistrict Municipality Market",
    "operator": "",
    "brand": "",
    "opening_hours": "",
    "address": "",
    "city": ""
  },
  {
    "osm_id": 651265054,
    "category": "shopping",
    "subcategory": "marketplace",
    "lat": 16.426076,
    "lon": 102.834204,
    "name": "",
    "name_en": "",
    "operator": "",
    "brand": "",
    "opening_hours": "",
    "address": "",
    "city": ""
  },
  {
    "osm_id": 668728492,
    "category": "shopping",
    "subcategory": "supermarket",
    "lat": 19.0056616,
    "lon": 104.9826043,
    "name": "",
    "name_en": "",
    "operator": "",
    "brand": "",
    "opening_hours": "",
    "address": "",
    "city": ""
  },
  {
    "osm_id": 668769529,
    "category": "shopping",
    "subcategory": "marketplace",
    "lat": 20.5673749,
    "lon": 105.0142844,
    "name": "",
    "name_en": "",
    "operator": "",
    "brand": "",
    "opening_hours": "",
    "address": "",
    "city": ""
  },
  {
    "osm_id": 668806888,
    "category": "shopping",
    "subcategory": "supermarket",
    "lat": 19.1590263,
    "lon": 104.6728359,
    "name": "",
    "name_en": "",
    "operator": "",
    "brand": "",
    "opening_hours": "",
    "address": "",
    "city": ""
  },
  {
    "osm_id": 668807023,
    "category": "shopping",
    "subcategory": "supermarket",
    "lat": 19.1343273,
    "lon": 104.747239,
    "name": "",
    "name_en": "",
    "operator": "",
    "brand": "",
    "opening_hours": "",
    "address": "",
    "city": ""
  },
  {
    "osm_id": 668843392,
    "category": "shopping",
    "subcategory": "supermarket",
    "lat": 19.4039651,
    "lon": 104.1412165,
    "name": "",
    "name_en": "",
    "operator": "",
    "brand": "",
    "opening_hours": "",
    "address": "",
    "city": ""
  },
  {
    "osm_id": 668997667,
    "category": "shopping",
    "subcategory": "supermarket",
    "lat": 21.2804183,
    "lon": 105.4729326,
    "name": "",
    "name_en": "",
    "operator": "",
    "brand": "",
    "opening_hours": "",
    "address": "",
    "city": ""
  },
  {
    "osm_id": 669247624,
    "category": "shopping",
    "subcategory": "supermarket",
    "lat": 22.5156584,
    "lon": 103.9539893,
    "name": "",
    "name_en": "jia yong hualiansupermarket",
    "operator": "",
    "brand": "",
    "opening_hours": "",
    "address": "",
    "city": ""
  },
  {
    "osm_id": 687163101,
    "category": "shopping",
    "subcategory": "supermarket",
    "lat": 15.2708496,
    "lon": 104.8398917,
    "name": "Big C",
    "name_en": "Big C",
    "operator": "",
    "brand": "Big C",
    "opening_hours": "PH,Mo-Su 08:00-09:00",
    "address": "",
    "city": ""
  },
  {
    "osm_id": 710088591,
    "category": "shopping",
    "subcategory": "marketplace",
    "lat": 16.4555611,
    "lon": 102.8322575,
    "name": "ตลาดต้นไม้",
    "name_en": "Talat Tonmai",
    "operator": "",
    "brand": "",
    "opening_hours": "",
    "address": "",
    "city": ""
  },
  {
    "osm_id": 711681853,
    "category": "shopping",
    "subcategory": "supermarket",
    "lat": 16.4323099,
    "lon": 102.824635,
    "name": "Tops",
    "name_en": "Tops",
    "operator": "",
    "brand": "Tops",
    "opening_hours": "",
    "address": "",
    "city": ""
  },
  {
    "osm_id": 711682013,
    "category": "shopping",
    "subcategory": "supermarket",
    "lat": 16.4299546,
    "lon": 102.8316507,
    "name": "Tops",
    "name_en": "Tops",
    "operator": "",
    "brand": "Tops",
    "opening_hours": "",
    "address": "",
    "city": ""
  },
  {
    "osm_id": 728293961,
    "category": "shopping",
    "subcategory": "supermarket",
    "lat": 16.4232718,
    "lon": 102.833852,
    "name": "Lotus's",
    "name_en": "Lotus's",
    "operator": "",
    "brand": "Lotus's",
    "opening_hours": "",
    "address": "",
    "city": ""
  },
  {
    "osm_id": 755936804,
    "category": "shopping",
    "subcategory": "supermarket",
    "lat": 17.386627,
    "lon": 102.824382,
    "name": "Big C",
    "name_en": "Big C",
    "operator": "",
    "brand": "Big C",
    "opening_hours": "",
    "address": "",
    "city": ""
  },
  {
    "osm_id": 757369597,
    "category": "shopping",
    "subcategory": "marketplace",
    "lat": 17.4031146,
    "lon": 102.7970763,
    "name": "ตลาดไทยอิสาณ",
    "name_en": "Thai - Issan Market",
    "operator": "",
    "brand": "",
    "opening_hours": "",
    "address": "",
    "city": ""
  },
  {
    "osm_id": 847688520,
    "category": "shopping",
    "subcategory": "supermarket",
    "lat": 20.8452781,
    "lon": 106.7078633,
    "name": "GO! Hải Phòng",
    "name_en": "",
    "operator": "",
    "brand": "",
    "opening_hours": "",
    "address": "",
    "city": ""
  },
  {
    "osm_id": 863605351,
    "category": "shopping",
    "subcategory": "supermarket",
    "lat": 16.3469297,
    "lon": 107.8931335,
    "name": "Chợ Vinh Hiền",
    "name_en": "",
    "operator": "",
    "brand": "",
    "opening_hours": "",
    "address": "",
    "city": ""
  },
  {
    "osm_id": 916276564,
    "category": "shopping",
    "subcategory": "marketplace",
    "lat": 16.4217371,
    "lon": 102.8058239,
    "name": "ตลาดบ้านกอก",
    "name_en": "Talat Ban Kok",
    "operator": "",
    "brand": "",
    "opening_hours": "",
    "address": "",
    "city": ""
  },
  {
    "osm_id": 947763519,
    "category": "shopping",
    "subcategory": "supermarket",
    "lat": 10.7652697,
    "lon": 106.7028692,
    "name": "Focomart",
    "name_en": "",
    "operator": "",
    "brand": "",
    "opening_hours": "",
    "address": "",
    "city": ""
  },
  {
    "osm_id": 967759516,
    "category": "shopping",
    "subcategory": "supermarket",
    "lat": 15.7757108,
    "lon": 102.0270302,
    "name": "",
    "name_en": "Makro",
    "operator": "",
    "brand": "",
    "opening_hours": "",
    "address": "",
    "city": ""
  },
  {
    "osm_id": 968267002,
    "category": "shopping",
    "subcategory": "marketplace",
    "lat": 14.41665,
    "lon": 103.10161,
    "name": "Tuesday Night Market",
    "name_en": "",
    "operator": "",
    "brand": "",
    "opening_hours": "",
    "address": "",
    "city": ""
  },
  {
    "osm_id": 972604090,
    "category": "shopping",
    "subcategory": "marketplace",
    "lat": 13.433053,
    "lon": 103.9050183,
    "name": "",
    "name_en": "",
    "operator": "",
    "brand": "",
    "opening_hours": "",
    "address": "",
    "city": ""
  },
  {
    "osm_id": 974334430,
    "category": "shopping",
    "subcategory": "supermarket",
    "lat": 12.0688982,
    "lon": 102.2818406,
    "name": "V Mart",
    "name_en": "",
    "operator": "",
    "brand": "",
    "opening_hours": "",
    "address": "",
    "city": ""
  },
  {
    "osm_id": 977640029,
    "category": "shopping",
    "subcategory": "supermarket",
    "lat": 21.035431,
    "lon": 105.791874,
    "name": "Media Mart Cầu Giấy",
    "name_en": "",
    "operator": "",
    "brand": "",
    "opening_hours": "",
    "address": "Đường Cầu Giấy",
    "city": "Hà Nội"
  },
  {
    "osm_id": 977647385,
    "category": "shopping",
    "subcategory": "supermarket",
    "lat": 21.0294273,
    "lon": 105.8458111,
    "name": "Japan Supermarket",
    "name_en": "",
    "operator": "",
    "brand": "",
    "opening_hours": "",
    "address": "Phố Hàng Bông",
    "city": ""
  },
  {
    "osm_id": 977668079,
    "category": "shopping",
    "subcategory": "supermarket",
    "lat": 21.0307067,
    "lon": 105.8482851,
    "name": "Siêu Thị Hapro",
    "name_en": "",
    "operator": "",
    "brand": "",
    "opening_hours": "",
    "address": "Phố Hàng Bông",
    "city": ""
  },
  {
    "osm_id": 980136662,
    "category": "shopping",
    "subcategory": "supermarket",
    "lat": 10.5373735,
    "lon": 106.4073605,
    "name": "Siêu thị điện máy Phước Lập",
    "name_en": "Phuoc Lap Electronic Supermaket",
    "operator": "",
    "brand": "",
    "opening_hours": "",
    "address": "",
    "city": ""
  },
  {
    "osm_id": 980138079,
    "category": "shopping",
    "subcategory": "marketplace",
    "lat": 10.5313746,
    "lon": 106.4165997,
    "name": "Chợ Đêm Tân An",
    "name_en": "",
    "operator": "",
    "brand": "",
    "opening_hours": "",
    "address": "",
    "city": ""
  },
  {
    "osm_id": 980138807,
    "category": "shopping",
    "subcategory": "marketplace",
    "lat": 10.5345475,
    "lon": 106.4107415,
    "name": "Coopmart Tân An",
    "name_en": "",
    "operator": "",
    "brand": "",
    "opening_hours": "",
    "address": "",
    "city": ""
  },
  {
    "osm_id": 1001114473,
    "category": "shopping",
    "subcategory": "supermarket",
    "lat": 10.806477,
    "lon": 106.6949172,
    "name": "Cửa Hàng Tiện Lợi Shop&Go!",
    "name_en": "",
    "operator": "Shop&Go",
    "brand": "",
    "opening_hours": "",
    "address": "",
    "city": ""
  },
  {
    "osm_id": 1001114491,
    "category": "shopping",
    "subcategory": "supermarket",
    "lat": 10.8036214,
    "lon": 106.7012353,
    "name": "Focomart",
    "name_en": "",
    "operator": "",
    "brand": "",
    "opening_hours": "",
    "address": "",
    "city": ""
  },
  {
    "osm_id": 1057046361,
    "category": "shopping",
    "subcategory": "supermarket",
    "lat": 11.570285,
    "lon": 104.9182332,
    "name": "Thai Huot",
    "name_en": "",
    "operator": "Thai Huot",
    "brand": "",
    "opening_hours": "08:00-20:00",
    "address": "",
    "city": ""
  },
  {
    "osm_id": 1057065063,
    "category": "shopping",
    "subcategory": "supermarket",
    "lat": 11.5710553,
    "lon": 104.9164324,
    "name": "Bayon Market",
    "name_en": "Bayon Market",
    "operator": "",
    "brand": "",
    "opening_hours": "",
    "address": "",
    "city": ""
  },
  {
    "osm_id": 1060132892,
    "category": "shopping",
    "subcategory": "marketplace",
    "lat": 12.6009188,
    "lon": 103.7911951,
    "name": "",
    "name_en": "",
    "operator": "",
    "brand": "",
    "opening_hours": "",
    "address": "",
    "city": ""
  },
  {
    "osm_id": 1060194618,
    "category": "shopping",
    "subcategory": "marketplace",
    "lat": 12.3804417,
    "lon": 104.4836831,
    "name": "Phsar",
    "name_en": "",
    "operator": "",
    "brand": "",
    "opening_hours": "",
    "address": "",
    "city": ""
  },
  {
    "osm_id": 1143474773,
    "category": "shopping",
    "subcategory": "supermarket",
    "lat": 17.975122,
    "lon": 102.5941471,
    "name": "Pinky Minimarket",
    "name_en": "Pinky Minimarket",
    "operator": "",
    "brand": "",
    "opening_hours": "",
    "address": "",
    "city": ""
  },
  {
    "osm_id": 1152317395,
    "category": "shopping",
    "subcategory": "marketplace",
    "lat": 11.9551014,
    "lon": 108.431082,
    "name": "",
    "name_en": "",
    "operator": "",
    "brand": "",
    "opening_hours": "",
    "address": "",
    "city": ""
  },
  {
    "osm_id": 1152317883,
    "category": "shopping",
    "subcategory": "marketplace",
    "lat": 11.9435196,
    "lon": 108.4372097,
    "name": "Chợ Đà Lạt",
    "name_en": "Da Lat Market",
    "operator": "",
    "brand": "",
    "opening_hours": "",
    "address": "",
    "city": ""
  },
  {
    "osm_id": 1152320063,
    "category": "shopping",
    "subcategory": "supermarket",
    "lat": 11.9488317,
    "lon": 108.4638293,
    "name": "Siêu thị Lang Biang",
    "name_en": "Lang Biang Supermaket",
    "operator": "",
    "brand": "",
    "opening_hours": "",
    "address": "",
    "city": ""
  },
  {
    "osm_id": 1152346560,
    "category": "shopping",
    "subcategory": "marketplace",
    "lat": 11.9495015,
    "lon": 108.4636063,
    "name": "Phan Chu Trinh",
    "name_en": "",
    "operator": "",
    "brand": "",
    "opening_hours": "",
    "address": "",
    "city": ""
  },
  {
    "osm_id": 1152350964,
    "category": "shopping",
    "subcategory": "marketplace",
    "lat": 11.9428516,
    "lon": 108.4524732,
    "name": "",
    "name_en": "",
    "operator": "",
    "brand": "",
    "opening_hours": "",
    "address": "",
    "city": ""
  },
  {
    "osm_id": 1152352701,
    "category": "shopping",
    "subcategory": "marketplace",
    "lat": 11.9392214,
    "lon": 108.4265514,
    "name": "",
    "name_en": "",
    "operator": "",
    "brand": "",
    "opening_hours": "",
    "address": "",
    "city": ""
  },
  {
    "osm_id": 1202988440,
    "category": "shopping",
    "subcategory": "marketplace",
    "lat": 16.4275849,
    "lon": 102.8346874,
    "name": "",
    "name_en": "",
    "operator": "",
    "brand": "",
    "opening_hours": "",
    "address": "",
    "city": ""
  },
  {
    "osm_id": 1203052631,
    "category": "shopping",
    "subcategory": "supermarket",
    "lat": 18.2455028,
    "lon": 109.5046689,
    "name": "",
    "name_en": "",
    "operator": "",
    "brand": "",
    "opening_hours": "",
    "address": "",
    "city": ""
  },
  {
    "osm_id": 1218832151,
    "category": "shopping",
    "subcategory": "supermarket",
    "lat": 12.005306,
    "lon": 102.2966181,
    "name": "",
    "name_en": "",
    "operator": "",
    "brand": "",
    "opening_hours": "",
    "address": "",
    "city": ""
  },
  {
    "osm_id": 1248656125,
    "category": "shopping",
    "subcategory": "marketplace",
    "lat": 16.4616905,
    "lon": 107.5900942,
    "name": "Chợ",
    "name_en": "",
    "operator": "",
    "brand": "",
    "opening_hours": "",
    "address": "",
    "city": ""
  },
  {
    "osm_id": 1270298405,
    "category": "shopping",
    "subcategory": "marketplace",
    "lat": 10.3606458,
    "lon": 106.6724185,
    "name": "Chợ Gò Công (mới)",
    "name_en": "Go Cong Market",
    "operator": "",
    "brand": "",
    "opening_hours": "",
    "address": "",
    "city": ""
  },
  {
    "osm_id": 1270298441,
    "category": "shopping",
    "subcategory": "marketplace",
    "lat": 10.3622504,
    "lon": 106.673558,
    "name": "Chợ Gò Công",
    "name_en": "Go Cong Market",
    "operator": "",
    "brand": "",
    "opening_hours": "",
    "address": "",
    "city": ""
  },
  {
    "osm_id": 1274268757,
    "category": "shopping",
    "subcategory": "marketplace",
    "lat": 9.8139931,
    "lon": 105.0614163,
    "name": "",
    "name_en": "",
    "operator": "",
    "brand": "",
    "opening_hours": "",
    "address": "",
    "city": ""
  },
  {
    "osm_id": 1274538623,
    "category": "shopping",
    "subcategory": "marketplace",
    "lat": 20.5914536,
    "lon": 105.9270085,
    "name": "Chợ Đục Đá",
    "name_en": "",
    "operator": "",
    "brand": "",
    "opening_hours": "",
    "address": "",
    "city": ""
  },
  {
    "osm_id": 1275271658,
    "category": "shopping",
    "subcategory": "marketplace",
    "lat": 11.0437006,
    "lon": 107.0186129,
    "name": "Chợ Vĩnh Tân",
    "name_en": "",
    "operator": "",
    "brand": "",
    "opening_hours": "24/7",
    "address": "",
    "city": ""
  },
  {
    "osm_id": 1275615144,
    "category": "shopping",
    "subcategory": "marketplace",
    "lat": 11.2049529,
    "lon": 106.3990157,
    "name": "Chợ Thạnh An",
    "name_en": "",
    "operator": "",
    "brand": "",
    "opening_hours": "",
    "address": "",
    "city": ""
  },
  {
    "osm_id": 1277414498,
    "category": "shopping",
    "subcategory": "marketplace",
    "lat": 16.3003172,
    "lon": 103.9771265,
    "name": "Phon Thong Market Hall",
    "name_en": "",
    "operator": "",
    "brand": "",
    "opening_hours": "",
    "address": "",
    "city": ""
  },
  {
    "osm_id": 1285858523,
    "category": "shopping",
    "subcategory": "supermarket",
    "lat": 22.997079,
    "lon": 102.397915,
    "name": "",
    "name_en": "",
    "operator": "",
    "brand": "",
    "opening_hours": "",
    "address": "",
    "city": ""
  },
  {
    "osm_id": 1308678501,
    "category": "shopping",
    "subcategory": "marketplace",
    "lat": 17.4044008,
    "lon": 102.8048885,
    "name": "เซ็นเตอร์พ้อยท์2003",
    "name_en": "Center Point 2003",
    "operator": "",
    "brand": "",
    "opening_hours": "",
    "address": "",
    "city": ""
  },
  {
    "osm_id": 1316475285,
    "category": "shopping",
    "subcategory": "marketplace",
    "lat": 10.7114181,
    "lon": 105.1203456,
    "name": "",
    "name_en": "",
    "operator": "",
    "brand": "",
    "opening_hours": "",
    "address": "",
    "city": ""
  },
  {
    "osm_id": 1316475299,
    "category": "shopping",
    "subcategory": "marketplace",
    "lat": 10.7123695,
    "lon": 105.1196327,
    "name": "",
    "name_en": "",
    "operator": "",
    "brand": "",
    "opening_hours": "",
    "address": "",
    "city": ""
  },
  {
    "osm_id": 1373054569,
    "category": "shopping",
    "subcategory": "marketplace",
    "lat": 16.5878397,
    "lon": 102.9595805,
    "name": "ตลาดกลางข้าวเปลือก",
    "name_en": "Talat Klang Khaoplueak",
    "operator": "",
    "brand": "",
    "opening_hours": "",
    "address": "",
    "city": ""
  },
  {
    "osm_id": 1373636135,
    "category": "shopping",
    "subcategory": "marketplace",
    "lat": 16.6460974,
    "lon": 102.814604,
    "name": "ตลาดม่วงหวาน",
    "name_en": "Talat Muang Wan",
    "operator": "",
    "brand": "",
    "opening_hours": "",
    "address": "",
    "city": ""
  },
  {
    "osm_id": 1380856181,
    "category": "shopping",
    "subcategory": "marketplace",
    "lat": 13.9789735,
    "lon": 107.9961475,
    "name": "Chợ trung tâm Pleiku",
    "name_en": "Pleiku Central Market",
    "operator": "",
    "brand": "",
    "opening_hours": "",
    "address": "",
    "city": ""
  },
  {
    "osm_id": 1440422901,
    "category": "shopping",
    "subcategory": "supermarket",
    "lat": 15.2562197,
    "lon": 104.8482157,
    "name": "City Mall",
    "name_en": "",
    "operator": "",
    "brand": "",
    "opening_hours": "",
    "address": "",
    "city": ""
  },
  {
    "osm_id": 1444036291,
    "category": "shopping",
    "subcategory": "marketplace",
    "lat": 17.9696651,
    "lon": 102.6051796,
    "name": "Ban Anou Night Market",
    "name_en": "",
    "operator": "",
    "brand": "",
    "opening_hours": "Mo-Su 17:00-21:00",
    "address": "ຖະຫນົນ ເຈົ້າອານຸ",
    "city": ""
  },
  {
    "osm_id": 1491047942,
    "category": "shopping",
    "subcategory": "supermarket",
    "lat": 20.9700253,
    "lon": 105.8418973,
    "name": "Siêu Thị Trần Anh",
    "name_en": "",
    "operator": "",
    "brand": "",
    "opening_hours": "8:00 - 20:00",
    "address": "Đường Giải Phóng",
    "city": "Hà Nội"
  },
  {
    "osm_id": 1532448803,
    "category": "shopping",
    "subcategory": "supermarket",
    "lat": 13.7658994,
    "lon": 109.2217793,
    "name": "Trung Tâm Thương Mại Quy Nhơn",
    "name_en": "",
    "operator": "",
    "brand": "",
    "opening_hours": "",
    "address": "",
    "city": ""
  },
  {
    "osm_id": 1533619325,
    "category": "shopping",
    "subcategory": "marketplace",
    "lat": 13.782407,
    "lon": 109.2249884,
    "name": "Chợ Đầm",
    "name_en": "",
    "operator": "",
    "brand": "",
    "opening_hours": "",
    "address": "",
    "city": ""
  },
  {
    "osm_id": 1568847672,
    "category": "shopping",
    "subcategory": "supermarket",
    "lat": 10.607402,
    "lon": 104.1828959,
    "name": "Metapheap Mart",
    "name_en": "",
    "operator": "",
    "brand": "",
    "opening_hours": "",
    "address": "",
    "city": ""
  },
  {
    "osm_id": 1597982717,
    "category": "shopping",
    "subcategory": "supermarket",
    "lat": 10.7769187,
    "lon": 106.6811112,
    "name": "Maximart",
    "name_en": "",
    "operator": "",
    "brand": "",
    "opening_hours": "",
    "address": "",
    "city": ""
  },
  {
    "osm_id": 1600648125,
    "category": "shopping",
    "subcategory": "marketplace",
    "lat": 15.6929516,
    "lon": 106.0550462,
    "name": "",
    "name_en": "",
    "operator": "",
    "brand": "",
    "opening_hours": "",
    "address": "",
    "city": ""
  },
  {
    "osm_id": 1600794872,
    "category": "shopping",
    "subcategory": "marketplace",
    "lat": 16.8509331,
    "lon": 102.8724365,
    "name": "ตลาดเทศบาลตำบล เขาสวนกวาง",
    "name_en": "Khao Suan Kwang Municipality Market",
    "operator": "",
    "brand": "",
    "opening_hours": "",
    "address": "",
    "city": ""
  },
  {
    "osm_id": 1606286652,
    "category": "shopping",
    "subcategory": "supermarket",
    "lat": 16.7139465,
    "lon": 102.8727154,
    "name": "เทสโก้โลตัส",
    "name_en": "Tesco Lotus",
    "operator": "",
    "brand": "",
    "opening_hours": "06:00-22:00",
    "address": "",
    "city": ""
  },
  {
    "osm_id": 1613875898,
    "category": "shopping",
    "subcategory": "supermarket",
    "lat": 10.9271763,
    "lon": 108.0900333,
    "name": "Chợ Văn Thánh",
    "name_en": "",
    "operator": "",
    "brand": "",
    "opening_hours": "",
    "address": "",
    "city": ""
  },
  {
    "osm_id": 1616701062,
    "category": "shopping",
    "subcategory": "marketplace",
    "lat": 10.8360665,
    "lon": 104.4566127,
    "name": "ផ្សារឈូក",
    "name_en": "Chhuk Market",
    "operator": "",
    "brand": "",
    "opening_hours": "",
    "address": "",
    "city": ""
  },
  {
    "osm_id": 1633652258,
    "category": "shopping",
    "subcategory": "marketplace",
    "lat": 16.8239186,
    "lon": 107.0992767,
    "name": "Chợ Đông Hà",
    "name_en": "",
    "operator": "",
    "brand": "",
    "opening_hours": "",
    "address": "",
    "city": ""
  },
  {
    "osm_id": 1635104039,
    "category": "shopping",
    "subcategory": "supermarket",
    "lat": 10.816301,
    "lon": 106.6981233,
    "name": "Siêu Thị Bình Hòa",
    "name_en": "",
    "operator": "",
    "brand": "",
    "opening_hours": "",
    "address": "",
    "city": ""
  },
  {
    "osm_id": 1637390101,
    "category": "shopping",
    "subcategory": "supermarket",
    "lat": 21.0612892,
    "lon": 107.4291004,
    "name": "",
    "name_en": "",
    "operator": "",
    "brand": "",
    "opening_hours": "",
    "address": "",
    "city": ""
  },
  {
    "osm_id": 1641500874,
    "category": "shopping",
    "subcategory": "supermarket",
    "lat": 10.8224451,
    "lon": 106.7071706,
    "name": "Siêu Thị Mini Bình Minh",
    "name_en": "",
    "operator": "",
    "brand": "",
    "opening_hours": "",
    "address": "Đường Nơ Trang Long",
    "city": ""
  },
  {
    "osm_id": 1644008071,
    "category": "shopping",
    "subcategory": "marketplace",
    "lat": 13.1023529,
    "lon": 109.3118133,
    "name": "Chợ Phường 7",
    "name_en": "",
    "operator": "",
    "brand": "",
    "opening_hours": "",
    "address": "",
    "city": ""
  },
  {
    "osm_id": 1657475508,
    "category": "shopping",
    "subcategory": "supermarket",
    "lat": 10.7579255,
    "lon": 106.6731127,
    "name": "Siêu Thị Mela",
    "name_en": "",
    "operator": "",
    "brand": "",
    "opening_hours": "",
    "address": "",
    "city": ""
  },
  {
    "osm_id": 1685291681,
    "category": "shopping",
    "subcategory": "marketplace",
    "lat": 20.9723698,
    "lon": 105.7455509,
    "name": "Chợ Chiều Thắng Lợi",
    "name_en": "",
    "operator": "",
    "brand": "",
    "opening_hours": "",
    "address": "",
    "city": ""
  },
  {
    "osm_id": 1706551312,
    "category": "shopping",
    "subcategory": "supermarket",
    "lat": 11.5753406,
    "lon": 108.9887525,
    "name": "Siêu thị Coopmart",
    "name_en": "",
    "operator": "",
    "brand": "",
    "opening_hours": "",
    "address": "",
    "city": ""
  },
  {
    "osm_id": 1711447442,
    "category": "shopping",
    "subcategory": "marketplace",
    "lat": 21.1389727,
    "lon": 105.5072008,
    "name": "Siêu thị Thành Sơn",
    "name_en": "",
    "operator": "",
    "brand": "",
    "opening_hours": "",
    "address": "",
    "city": ""
  },
  {
    "osm_id": 1712283931,
    "category": "shopping",
    "subcategory": "supermarket",
    "lat": 11.5606885,
    "lon": 104.8704741,
    "name": "Nine Dragons",
    "name_en": "",
    "operator": "",
    "brand": "",
    "opening_hours": "",
    "address": "",
    "city": ""
  },
  {
    "osm_id": 1724947875,
    "category": "shopping",
    "subcategory": "supermarket",
    "lat": 21.0341584,
    "lon": 105.8000567,
    "name": "",
    "name_en": "",
    "operator": "",
    "brand": "",
    "opening_hours": "",
    "address": "",
    "city": ""
  },
  {
    "osm_id": 1731367489,
    "category": "shopping",
    "subcategory": "marketplace",
    "lat": 12.459185,
    "lon": 107.8263915,
    "name": "Chợ Đắk Mâm",
    "name_en": "",
    "operator": "",
    "brand": "",
    "opening_hours": "",
    "address": "",
    "city": ""
  },
  {
    "osm_id": 1736286837,
    "category": "shopping",
    "subcategory": "marketplace",
    "lat": 20.1005657,
    "lon": 106.1080623,
    "name": "Chợ Quang Thiện",
    "name_en": "",
    "operator": "",
    "brand": "",
    "opening_hours": "Mo-Su 05:00-21:00",
    "address": "",
    "city": ""
  },
  {
    "osm_id": 1738253487,
    "category": "shopping",
    "subcategory": "marketplace",
    "lat": 20.1043537,
    "lon": 106.1167869,
    "name": "Chợ Quy Hậu",
    "name_en": "",
    "operator": "",
    "brand": "",
    "opening_hours": "",
    "address": "",
    "city": ""
  },
  {
    "osm_id": 1738893058,
    "category": "shopping",
    "subcategory": "marketplace",
    "lat": 12.4487525,
    "lon": 107.6210296,
    "name": "Chợ Đăk Mil",
    "name_en": "",
    "operator": "",
    "brand": "",
    "opening_hours": "",
    "address": "",
    "city": ""
  },
  {
    "osm_id": 1750952343,
    "category": "shopping",
    "subcategory": "marketplace",
    "lat": 11.8272513,
    "lon": 106.180672,
    "name": "Memot Market",
    "name_en": "",
    "operator": "",
    "brand": "",
    "opening_hours": "",
    "address": "",
    "city": ""
  },
  {
    "osm_id": 1753037671,
    "category": "shopping",
    "subcategory": "marketplace",
    "lat": 10.2627112,
    "lon": 106.2394162,
    "name": "Chợ Tiên Thủy",
    "name_en": "",
    "operator": "",
    "brand": "",
    "opening_hours": "",
    "address": "",
    "city": ""
  },
  {
    "osm_id": 1754984136,
    "category": "shopping",
    "subcategory": "marketplace",
    "lat": 22.6173391,
    "lon": 104.3005947,
    "name": "Chợ Cán Cấu",
    "name_en": "",
    "operator": "",
    "brand": "",
    "opening_hours": "",
    "address": "",
    "city": ""
  },
  {
    "osm_id": 1755563883,
    "category": "shopping",
    "subcategory": "marketplace",
    "lat": 22.501401,
    "lon": 104.1981107,
    "name": "Chợ Cốc Ly",
    "name_en": "",
    "operator": "",
    "brand": "",
    "opening_hours": "",
    "address": "",
    "city": ""
  },
  {
    "osm_id": 1770597640,
    "category": "shopping",
    "subcategory": "supermarket",
    "lat": 10.7737618,
    "lon": 106.704673,
    "name": "",
    "name_en": "",
    "operator": "",
    "brand": "",
    "opening_hours": "",
    "address": "",
    "city": ""
  },
  {
    "osm_id": 1773230303,
    "category": "shopping",
    "subcategory": "supermarket",
    "lat": 10.7559528,
    "lon": 106.6624963,
    "name": "Cửa Hàng Mua Sắm Citimart",
    "name_en": "",
    "operator": "",
    "brand": "",
    "opening_hours": "",
    "address": "Đường Hồng Bàng",
    "city": ""
  },
  {
    "osm_id": 1778735915,
    "category": "shopping",
    "subcategory": "supermarket",
    "lat": 10.0294697,
    "lon": 105.7763338,
    "name": "Nha sach Trung Tam",
    "name_en": "",
    "operator": "",
    "brand": "",
    "opening_hours": "",
    "address": "",
    "city": ""
  },
  {
    "osm_id": 1778803400,
    "category": "shopping",
    "subcategory": "supermarket",
    "lat": 10.030732,
    "lon": 105.7806832,
    "name": "WinMart",
    "name_en": "",
    "operator": "",
    "brand": "WinMart",
    "opening_hours": "",
    "address": "30 Tháng 4",
    "city": "Cần Thơ"
  },
  {
    "osm_id": 1779408189,
    "category": "shopping",
    "subcategory": "marketplace",
    "lat": 10.758802,
    "lon": 106.694865,
    "name": "Chợ Cầu Dừa",
    "name_en": "Cau Dua Market",
    "operator": "",
    "brand": "",
    "opening_hours": "",
    "address": "",
    "city": ""
  },
  {
    "osm_id": 1780019528,
    "category": "shopping",
    "subcategory": "supermarket",
    "lat": 10.0352377,
    "lon": 105.7789805,
    "name": "Siêu thị laptop Á Châu",
    "name_en": "",
    "operator": "",
    "brand": "",
    "opening_hours": "",
    "address": "",
    "city": ""
  },
  {
    "osm_id": 1780099058,
    "category": "shopping",
    "subcategory": "supermarket",
    "lat": 10.3846827,
    "lon": 105.4366493,
    "name": "Điện máy Nguyễn Kim",
    "name_en": "",
    "operator": "",
    "brand": "",
    "opening_hours": "",
    "address": "Quốc lộ 91",
    "city": ""
  },
  {
    "osm_id": 1781228145,
    "category": "shopping",
    "subcategory": "supermarket",
    "lat": 10.0236184,
    "lon": 105.7664712,
    "name": "TT Nội thất dẹp",
    "name_en": "",
    "operator": "",
    "brand": "",
    "opening_hours": "",
    "address": "",
    "city": ""
  },
  {
    "osm_id": 1781231934,
    "category": "shopping",
    "subcategory": "supermarket",
    "lat": 10.0211342,
    "lon": 105.7650295,
    "name": "Điện máy Phương Tùng",
    "name_en": "",
    "operator": "",
    "brand": "",
    "opening_hours": "",
    "address": "",
    "city": ""
  },
  {
    "osm_id": 1781231939,
    "category": "shopping",
    "subcategory": "supermarket",
    "lat": 10.0216517,
    "lon": 105.7647937,
    "name": "Ngọc Tiên",
    "name_en": "",
    "operator": "",
    "brand": "",
    "opening_hours": "",
    "address": "",
    "city": ""
  },
  {
    "osm_id": 1781239378,
    "category": "shopping",
    "subcategory": "supermarket",
    "lat": 10.0157033,
    "lon": 105.7602232,
    "name": "Nội thất Vietmay Depot",
    "name_en": "",
    "operator": "",
    "brand": "",
    "opening_hours": "",
    "address": "",
    "city": ""
  },
  {
    "osm_id": 1781239390,
    "category": "shopping",
    "subcategory": "supermarket",
    "lat": 10.0137303,
    "lon": 105.7583993,
    "name": "OSEVEN Mart",
    "name_en": "",
    "operator": "",
    "brand": "",
    "opening_hours": "",
    "address": "",
    "city": ""
  },
  {
    "osm_id": 1783224034,
    "category": "shopping",
    "subcategory": "supermarket",
    "lat": 10.0410881,
    "lon": 105.7841401,
    "name": "Siêu thị ĐIện máy Phương Tùng",
    "name_en": "",
    "operator": "",
    "brand": "",
    "opening_hours": "",
    "address": "",
    "city": ""
  },
  {
    "osm_id": 1783227735,
    "category": "shopping",
    "subcategory": "supermarket",
    "lat": 10.0402288,
    "lon": 105.7853842,
    "name": "Siêu thị Điện máy Phương Tùng",
    "name_en": "",
    "operator": "",
    "brand": "",
    "opening_hours": "",
    "address": "",
    "city": ""
  },
  {
    "osm_id": 1787142343,
    "category": "shopping",
    "subcategory": "marketplace",
    "lat": 15.961064,
    "lon": 102.5415798,
    "name": "ตลาดสดเทศบาล ตำบลแวงใหญ่",
    "name_en": "Waeng Yai Municipality Fresh Market",
    "operator": "",
    "brand": "",
    "opening_hours": "",
    "address": "",
    "city": ""
  },
  {
    "osm_id": 1787566839,
    "category": "shopping",
    "subcategory": "supermarket",
    "lat": 20.5768746,
    "lon": 102.1279342,
    "name": "",
    "name_en": "",
    "operator": "",
    "brand": "",
    "opening_hours": "",
    "address": "",
    "city": ""
  },
  {
    "osm_id": 1792690994,
    "category": "shopping",
    "subcategory": "supermarket",
    "lat": 10.0216793,
    "lon": 105.7705613,
    "name": "Ninh Kiều 3",
    "name_en": "",
    "operator": "",
    "brand": "",
    "opening_hours": "",
    "address": "",
    "city": ""
  },
  {
    "osm_id": 1793968790,
    "category": "shopping",
    "subcategory": "marketplace",
    "lat": 10.0491642,
    "lon": 105.7724079,
    "name": "Chợ An Hòa",
    "name_en": "",
    "operator": "",
    "brand": "",
    "opening_hours": "",
    "address": "",
    "city": ""
  },
  {
    "osm_id": 1797812507,
    "category": "shopping",
    "subcategory": "supermarket",
    "lat": 10.0033716,
    "lon": 105.7518633,
    "name": "Siêu thị Thùy Dương",
    "name_en": "",
    "operator": "",
    "brand": "",
    "opening_hours": "",
    "address": "",
    "city": ""
  },
  {
    "osm_id": 1802406227,
    "category": "shopping",
    "subcategory": "marketplace",
    "lat": 16.3235722,
    "lon": 103.2981477,
    "name": "ตลาดเทศบาล ตำบลโคกพระ",
    "name_en": "Khok Phra Municipality Market",
    "operator": "",
    "brand": "",
    "opening_hours": "",
    "address": "",
    "city": ""
  },
  {
    "osm_id": 1805721824,
    "category": "shopping",
    "subcategory": "marketplace",
    "lat": 10.2253858,
    "lon": 105.5530469,
    "name": "Chợ Cần Thơ Bé",
    "name_en": "",
    "operator": "",
    "brand": "",
    "opening_hours": "",
    "address": "",
    "city": ""
  },
  {
    "osm_id": 1805721842,
    "category": "shopping",
    "subcategory": "marketplace",
    "lat": 10.1824381,
    "lon": 105.551018,
    "name": "Chợ Thơm Rơm",
    "name_en": "",
    "operator": "",
    "brand": "",
    "opening_hours": "",
    "address": "",
    "city": ""
  },
  {
    "osm_id": 1810772439,
    "category": "shopping",
    "subcategory": "supermarket",
    "lat": 10.2905457,
    "lon": 105.7668561,
    "name": "Thế giới di động",
    "name_en": "",
    "operator": "",
    "brand": "",
    "opening_hours": "",
    "address": "",
    "city": ""
  },
  {
    "osm_id": 1810794037,
    "category": "shopping",
    "subcategory": "supermarket",
    "lat": 10.2907782,
    "lon": 105.7677565,
    "name": "Siêu thị Vinatex Đồng Tháp",
    "name_en": "",
    "operator": "",
    "brand": "",
    "opening_hours": "",
    "address": "",
    "city": ""
  },
  {
    "osm_id": 1810811790,
    "category": "shopping",
    "subcategory": "marketplace",
    "lat": 10.1410978,
    "lon": 105.7167036,
    "name": "Chợ Tân Lược",
    "name_en": "",
    "operator": "",
    "brand": "",
    "opening_hours": "",
    "address": "",
    "city": ""
  },
  {
    "osm_id": 1812091236,
    "category": "shopping",
    "subcategory": "marketplace",
    "lat": 10.5405018,
    "lon": 105.3307764,
    "name": "Chợ Mỹ Hôị Đông",
    "name_en": "",
    "operator": "",
    "brand": "",
    "opening_hours": "",
    "address": "",
    "city": ""
  },
  {
    "osm_id": 1812183322,
    "category": "shopping",
    "subcategory": "marketplace",
    "lat": 10.5559547,
    "lon": 105.2652246,
    "name": "Chợ Vàm Sáng Cây Dương",
    "name_en": "",
    "operator": "",
    "brand": "",
    "opening_hours": "",
    "address": "",
    "city": ""
  },
  {
    "osm_id": 1812309212,
    "category": "shopping",
    "subcategory": "supermarket",
    "lat": 10.7949354,
    "lon": 105.241502,
    "name": "Vinatex Tân Châu",
    "name_en": "",
    "operator": "",
    "brand": "",
    "opening_hours": "",
    "address": "",
    "city": ""
  },
  {
    "osm_id": 1812461400,
    "category": "shopping",
    "subcategory": "supermarket",
    "lat": 16.7076459,
    "lon": 103.5131972,
    "name": "บ้านโนนบุรี;ร้านถูกซุปเปอร์มาเก็ต",
    "name_en": "Ban Non Buri",
    "operator": "",
    "brand": "",
    "opening_hours": "",
    "address": "",
    "city": ""
  },
  {
    "osm_id": 1813366680,
    "category": "shopping",
    "subcategory": "marketplace",
    "lat": 10.7120201,
    "lon": 105.3447458,
    "name": "chợ Chợ Vàm",
    "name_en": "",
    "operator": "",
    "brand": "",
    "opening_hours": "",
    "address": "",
    "city": ""
  },
  {
    "osm_id": 1813598527,
    "category": "shopping",
    "subcategory": "marketplace",
    "lat": 10.7947567,
    "lon": 105.0667089,
    "name": "Chợ Vĩnh Hội Đông",
    "name_en": "",
    "operator": "",
    "brand": "",
    "opening_hours": "",
    "address": "",
    "city": ""
  },
  {
    "osm_id": 1813632282,
    "category": "shopping",
    "subcategory": "marketplace",
    "lat": 10.8022709,
    "lon": 105.206687,
    "name": "Chợ Long An",
    "name_en": "",
    "operator": "",
    "brand": "",
    "opening_hours": "",
    "address": "",
    "city": ""
  },
  {
    "osm_id": 1815728184,
    "category": "shopping",
    "subcategory": "marketplace",
    "lat": 16.3998849,
    "lon": 103.3714181,
    "name": "ตลาดสดเทศบาลตำบลยางตลาด",
    "name_en": "Yang Talat Municipality Fresh Market",
    "operator": "",
    "brand": "",
    "opening_hours": "",
    "address": "",
    "city": ""
  },
  {
    "osm_id": 1817686618,
    "category": "shopping",
    "subcategory": "supermarket",
    "lat": 12.2484785,
    "lon": 109.1867417,
    "name": "WinMart",
    "name_en": "",
    "operator": "",
    "brand": "WinMart",
    "opening_hours": "Mo-Su 09:00-22:00",
    "address": "",
    "city": ""
  },
  {
    "osm_id": 1819473126,
    "category": "shopping",
    "subcategory": "marketplace",
    "lat": 15.8789576,
    "lon": 108.3048545,
    "name": "",
    "name_en": "",
    "operator": "",
    "brand": "",
    "opening_hours": "",
    "address": "",
    "city": ""
  },
  {
    "osm_id": 1839434730,
    "category": "shopping",
    "subcategory": "supermarket",
    "lat": 17.4037624,
    "lon": 104.7858336,
    "name": "",
    "name_en": "",
    "operator": "",
    "brand": "",
    "opening_hours": "",
    "address": "",
    "city": ""
  },
  {
    "osm_id": 1858361604,
    "category": "shopping",
    "subcategory": "supermarket",
    "lat": 21.2404629,
    "lon": 105.7064471,
    "name": "PHÚC YÊN PLAZA",
    "name_en": "PHUCYEN  PLAZA",
    "operator": "",
    "brand": "",
    "opening_hours": "Mo-Su 09:00-23:00",
    "address": "TRƯNG TRẮC",
    "city": ""
  },
  {
    "osm_id": 1864479417,
    "category": "shopping",
    "subcategory": "supermarket",
    "lat": 11.5665765,
    "lon": 104.8976261,
    "name": "Arona Mart",
    "name_en": "",
    "operator": "",
    "brand": "",
    "opening_hours": "",
    "address": "",
    "city": ""
  },
  {
    "osm_id": 1881018457,
    "category": "shopping",
    "subcategory": "supermarket",
    "lat": 13.7108146,
    "lon": 102.4824369,
    "name": "",
    "name_en": "Tesco Lotus",
    "operator": "",
    "brand": "",
    "opening_hours": "",
    "address": "",
    "city": ""
  },
  {
    "osm_id": 1895793591,
    "category": "shopping",
    "subcategory": "marketplace",
    "lat": 13.664225,
    "lon": 102.5483863,
    "name": "Rongkleu Market",
    "name_en": "",
    "operator": "",
    "brand": "",
    "opening_hours": "",
    "address": "",
    "city": ""
  },
  {
    "osm_id": 1904290435,
    "category": "shopping",
    "subcategory": "marketplace",
    "lat": 17.9754106,
    "lon": 102.6506545,
    "name": "ຕະຫຼາດຫົວຂົວ",
    "name_en": "Houakhoua Public Market",
    "operator": "",
    "brand": "",
    "opening_hours": "",
    "address": "",
    "city": ""
  },
  {
    "osm_id": 1904290451,
    "category": "shopping",
    "subcategory": "marketplace",
    "lat": 17.9553615,
    "lon": 102.7035208,
    "name": "",
    "name_en": "",
    "operator": "",
    "brand": "",
    "opening_hours": "",
    "address": "",
    "city": ""
  },
  {
    "osm_id": 1921519106,
    "category": "shopping",
    "subcategory": "marketplace",
    "lat": 10.8724735,
    "lon": 106.7572494,
    "name": "Chợ An Bình",
    "name_en": "",
    "operator": "",
    "brand": "",
    "opening_hours": "",
    "address": "",
    "city": ""
  },
  {
    "osm_id": 1979165271,
    "category": "shopping",
    "subcategory": "marketplace",
    "lat": 12.715653,
    "lon": 104.8838456,
    "name": "Old Market",
    "name_en": "",
    "operator": "",
    "brand": "",
    "opening_hours": "",
    "address": "",
    "city": ""
  },
  {
    "osm_id": 1987339356,
    "category": "shopping",
    "subcategory": "supermarket",
    "lat": 10.7284509,
    "lon": 106.7183878,
    "name": "AEON Nguyễn Văn Linh",
    "name_en": "",
    "operator": "",
    "brand": "",
    "opening_hours": "Mo-Su 08:00-22:00",
    "address": "Tôn Dật Tiên",
    "city": "Thành phố Hồ Chí Minh"
  },
  {
    "osm_id": 1997154373,
    "category": "shopping",
    "subcategory": "supermarket",
    "lat": 10.7542055,
    "lon": 106.6645954,
    "name": "Siêu thị Điện máy Chợ Lớn",
    "name_en": "",
    "operator": "",
    "brand": "",
    "opening_hours": "",
    "address": "",
    "city": ""
  },
  {
    "osm_id": 2021225711,
    "category": "shopping",
    "subcategory": "supermarket",
    "lat": 21.024243,
    "lon": 105.81112,
    "name": "",
    "name_en": "",
    "operator": "",
    "brand": "",
    "opening_hours": "",
    "address": "",
    "city": ""
  },
  {
    "osm_id": 2024672672,
    "category": "shopping",
    "subcategory": "supermarket",
    "lat": 13.3611292,
    "lon": 103.8551957,
    "name": "Angkor Market",
    "name_en": "Angkor Market",
    "operator": "",
    "brand": "",
    "opening_hours": "Su-Mo 07:30-22:00",
    "address": "Sivatha Boulevard",
    "city": "Siem Reap"
  },
  {
    "osm_id": 2028069617,
    "category": "shopping",
    "subcategory": "supermarket",
    "lat": 10.5893695,
    "lon": 107.0553676,
    "name": "Chợ Đêm",
    "name_en": "",
    "operator": "",
    "brand": "",
    "opening_hours": "",
    "address": "",
    "city": ""
  },
  {
    "osm_id": 2035970992,
    "category": "shopping",
    "subcategory": "marketplace",
    "lat": 21.4654854,
    "lon": 109.121583,
    "name": "水果批发市场",
    "name_en": "",
    "operator": "",
    "brand": "",
    "opening_hours": "",
    "address": "",
    "city": ""
  },
  {
    "osm_id": 2036003152,
    "category": "shopping",
    "subcategory": "marketplace",
    "lat": 21.4828173,
    "lon": 109.1235529,
    "name": "南珠市场",
    "name_en": "",
    "operator": "",
    "brand": "",
    "opening_hours": "",
    "address": "",
    "city": ""
  },
  {
    "osm_id": 2071154991,
    "category": "shopping",
    "subcategory": "marketplace",
    "lat": 15.2699752,
    "lon": 104.8397502,
    "name": "",
    "name_en": "",
    "operator": "",
    "brand": "",
    "opening_hours": "",
    "address": "",
    "city": ""
  },
  {
    "osm_id": 2082378066,
    "category": "shopping",
    "subcategory": "supermarket",
    "lat": 10.806804,
    "lon": 106.634147,
    "name": "Big C",
    "name_en": "",
    "operator": "",
    "brand": "Big C",
    "opening_hours": "08:00-22:00",
    "address": "Trường Chinh",
    "city": ""
  },
  {
    "osm_id": 2083646203,
    "category": "shopping",
    "subcategory": "supermarket",
    "lat": 15.1124007,
    "lon": 105.8163938,
    "name": "Friendship Super Mart",
    "name_en": "",
    "operator": "",
    "brand": "",
    "opening_hours": "",
    "address": "",
    "city": ""
  },
  {
    "osm_id": 2091754044,
    "category": "shopping",
    "subcategory": "supermarket",
    "lat": 18.1413027,
    "lon": 102.5040632,
    "name": "ຕະຫລາດບ້ານ ອີໄລ",
    "name_en": "Ilay Market",
    "operator": "",
    "brand": "",
    "opening_hours": "24/7",
    "address": "",
    "city": ""
  },
  {
    "osm_id": 2136318858,
    "category": "shopping",
    "subcategory": "marketplace",
    "lat": 21.0682495,
    "lon": 105.8272643,
    "name": "Chợ Hoa Quảng Bá",
    "name_en": "",
    "operator": "",
    "brand": "",
    "opening_hours": "",
    "address": "",
    "city": ""
  },
  {
    "osm_id": 2136318878,
    "category": "shopping",
    "subcategory": "marketplace",
    "lat": 21.0770945,
    "lon": 105.8360083,
    "name": "",
    "name_en": "",
    "operator": "",
    "brand": "",
    "opening_hours": "",
    "address": "",
    "city": ""
  },
  {
    "osm_id": 2141010789,
    "category": "shopping",
    "subcategory": "supermarket",
    "lat": 10.7767779,
    "lon": 106.7050958,
    "name": "Siêu Thị Online Annam Gourmet",
    "name_en": "",
    "operator": "",
    "brand": "",
    "opening_hours": "",
    "address": "Hai Bà Trưng",
    "city": "Thành phố Hồ Chí Minh"
  },
  {
    "osm_id": 2147654924,
    "category": "shopping",
    "subcategory": "marketplace",
    "lat": 16.1002449,
    "lon": 108.2525503,
    "name": "Chợ Mai",
    "name_en": "Chợ Mai Day Market",
    "operator": "",
    "brand": "",
    "opening_hours": "",
    "address": "",
    "city": ""
  },
  {
    "osm_id": 2176765019,
    "category": "shopping",
    "subcategory": "supermarket",
    "lat": 10.7864217,
    "lon": 106.6755113,
    "name": "Co.opmart Nhiêu Lộc",
    "name_en": "",
    "operator": "",
    "brand": "",
    "opening_hours": "",
    "address": "",
    "city": ""
  },
  {
    "osm_id": 2179923066,
    "category": "shopping",
    "subcategory": "marketplace",
    "lat": 11.6576843,
    "lon": 102.5418101,
    "name": "",
    "name_en": "",
    "operator": "",
    "brand": "",
    "opening_hours": "",
    "address": "",
    "city": ""
  },
  {
    "osm_id": 2188801910,
    "category": "shopping",
    "subcategory": "marketplace",
    "lat": 12.0553952,
    "lon": 105.0743927,
    "name": "",
    "name_en": "",
    "operator": "",
    "brand": "",
    "opening_hours": "",
    "address": "",
    "city": ""
  },
  {
    "osm_id": 2188801917,
    "category": "shopping",
    "subcategory": "marketplace",
    "lat": 12.0565222,
    "lon": 105.0746674,
    "name": "",
    "name_en": "",
    "operator": "",
    "brand": "",
    "opening_hours": "",
    "address": "",
    "city": ""
  },
  {
    "osm_id": 2191926022,
    "category": "shopping",
    "subcategory": "supermarket",
    "lat": 18.6614899,
    "lon": 105.7079587,
    "name": "Metro",
    "name_en": "",
    "operator": "",
    "brand": "",
    "opening_hours": "",
    "address": "",
    "city": ""
  },
  {
    "osm_id": 2199479240,
    "category": "shopping",
    "subcategory": "supermarket",
    "lat": 10.621464,
    "lon": 103.5272015,
    "name": "Samudera",
    "name_en": "",
    "operator": "",
    "brand": "",
    "opening_hours": "",
    "address": "",
    "city": ""
  },
  {
    "osm_id": 2241026297,
    "category": "shopping",
    "subcategory": "supermarket",
    "lat": 12.2439136,
    "lon": 102.5105812,
    "name": "",
    "name_en": "",
    "operator": "",
    "brand": "",
    "opening_hours": "",
    "address": "",
    "city": ""
  },
  {
    "osm_id": 2264104954,
    "category": "shopping",
    "subcategory": "marketplace",
    "lat": 17.9639889,
    "lon": 102.6016644,
    "name": "Night Market",
    "name_en": "",
    "operator": "",
    "brand": "",
    "opening_hours": "Mo-Su 18:00-22:00",
    "address": "",
    "city": ""
  },
  {
    "osm_id": 2270438302,
    "category": "shopping",
    "subcategory": "marketplace",
    "lat": 21.3927936,
    "lon": 103.0150867,
    "name": "",
    "name_en": "",
    "operator": "",
    "brand": "",
    "opening_hours": "",
    "address": "",
    "city": ""
  },
  {
    "osm_id": 2271294566,
    "category": "shopping",
    "subcategory": "marketplace",
    "lat": 10.2959243,
    "lon": 105.7673144,
    "name": "Chợ đêm sađéc",
    "name_en": "Night market",
    "operator": "",
    "brand": "",
    "opening_hours": "",
    "address": "",
    "city": ""
  },
  {
    "osm_id": 2273284564,
    "category": "shopping",
    "subcategory": "marketplace",
    "lat": 10.7051429,
    "lon": 107.9856445,
    "name": "",
    "name_en": "",
    "operator": "",
    "brand": "",
    "opening_hours": "",
    "address": "",
    "city": ""
  },
  {
    "osm_id": 2273284566,
    "category": "shopping",
    "subcategory": "marketplace",
    "lat": 10.7213773,
    "lon": 107.9411306,
    "name": "",
    "name_en": "",
    "operator": "",
    "brand": "",
    "opening_hours": "",
    "address": "",
    "city": ""
  },
  {
    "osm_id": 2283723118,
    "category": "shopping",
    "subcategory": "marketplace",
    "lat": 14.925482,
    "lon": 102.0965327,
    "name": "ร้านขายของ",
    "name_en": "",
    "operator": "",
    "brand": "",
    "opening_hours": "",
    "address": "",
    "city": ""
  },
  {
    "osm_id": 2283723124,
    "category": "shopping",
    "subcategory": "marketplace",
    "lat": 14.9223797,
    "lon": 102.1002556,
    "name": "ร้านขายของ ป้าจวน",
    "name_en": "",
    "operator": "",
    "brand": "",
    "opening_hours": "",
    "address": "",
    "city": ""
  },
  {
    "osm_id": 2283723126,
    "category": "shopping",
    "subcategory": "marketplace",
    "lat": 14.9243604,
    "lon": 102.0952365,
    "name": "Siri",
    "name_en": "",
    "operator": "",
    "brand": "",
    "opening_hours": "",
    "address": "",
    "city": ""
  },
  {
    "osm_id": 2283723131,
    "category": "shopping",
    "subcategory": "marketplace",
    "lat": 14.9221024,
    "lon": 102.0944272,
    "name": "ร้านขายของ",
    "name_en": "",
    "operator": "",
    "brand": "",
    "opening_hours": "",
    "address": "",
    "city": ""
  },
  {
    "osm_id": 2283723144,
    "category": "shopping",
    "subcategory": "marketplace",
    "lat": 14.9214389,
    "lon": 102.1025516,
    "name": "ร้านขายของ",
    "name_en": "",
    "operator": "",
    "brand": "",
    "opening_hours": "",
    "address": "",
    "city": ""
  },
  {
    "osm_id": 2287646990,
    "category": "shopping",
    "subcategory": "marketplace",
    "lat": 10.9368166,
    "lon": 108.1276636,
    "name": "",
    "name_en": "",
    "operator": "",
    "brand": "",
    "opening_hours": "",
    "address": "",
    "city": ""
  },
  {
    "osm_id": 2287646994,
    "category": "shopping",
    "subcategory": "marketplace",
    "lat": 10.954117,
    "lon": 108.2451404,
    "name": "Chợ Hàm Tiến(market)",
    "name_en": "",
    "operator": "",
    "brand": "",
    "opening_hours": "",
    "address": "",
    "city": ""
  },
  {
    "osm_id": 2290037023,
    "category": "shopping",
    "subcategory": "marketplace",
    "lat": 21.024853,
    "lon": 105.8478962,
    "name": "",
    "name_en": "Book Market and Cafes",
    "operator": "",
    "brand": "",
    "opening_hours": "",
    "address": "",
    "city": ""
  },
  {
    "osm_id": 2296666121,
    "category": "shopping",
    "subcategory": "marketplace",
    "lat": 10.847542,
    "lon": 106.6356317,
    "name": "Chợ Cầu",
    "name_en": "",
    "operator": "",
    "brand": "",
    "opening_hours": "",
    "address": "",
    "city": ""
  },
  {
    "osm_id": 2297911469,
    "category": "shopping",
    "subcategory": "marketplace",
    "lat": 21.0596487,
    "lon": 105.8927714,
    "name": "",
    "name_en": "",
    "operator": "",
    "brand": "",
    "opening_hours": "",
    "address": "",
    "city": ""
  },
  {
    "osm_id": 2299085109,
    "category": "shopping",
    "subcategory": "supermarket",
    "lat": 10.3476761,
    "lon": 107.0744874,
    "name": "Siêu thị Mỹ Nghệ",
    "name_en": "",
    "operator": "",
    "brand": "",
    "opening_hours": "",
    "address": "Trưng Trắc",
    "city": ""
  },
  {
    "osm_id": 2299647501,
    "category": "shopping",
    "subcategory": "supermarket",
    "lat": 10.3669427,
    "lon": 107.0854561,
    "name": "CoopMart Vũng Tàu",
    "name_en": "",
    "operator": "",
    "brand": "",
    "opening_hours": "",
    "address": "Nguyễn Thái Học",
    "city": ""
  },
  {
    "osm_id": 2319185075,
    "category": "shopping",
    "subcategory": "supermarket",
    "lat": 11.6090685,
    "lon": 102.9794549,
    "name": "Brother Mart",
    "name_en": "",
    "operator": "",
    "brand": "",
    "opening_hours": "",
    "address": "",
    "city": ""
  },
  {
    "osm_id": 2324491346,
    "category": "shopping",
    "subcategory": "marketplace",
    "lat": 10.1628574,
    "lon": 104.6130601,
    "name": "Chợ Bình An",
    "name_en": "",
    "operator": "",
    "brand": "",
    "opening_hours": "",
    "address": "",
    "city": ""
  },
  {
    "osm_id": 2327003283,
    "category": "shopping",
    "subcategory": "marketplace",
    "lat": 10.3789699,
    "lon": 104.4854028,
    "name": "Chợ Hà Tiên",
    "name_en": "",
    "operator": "",
    "brand": "",
    "opening_hours": "",
    "address": "",
    "city": ""
  },
  {
    "osm_id": 2339056843,
    "category": "shopping",
    "subcategory": "marketplace",
    "lat": 10.3452023,
    "lon": 107.0942967,
    "name": "Chợ Du lịch Vũng Tàu",
    "name_en": "Vũng Tàu Tourism Market",
    "operator": "",
    "brand": "",
    "opening_hours": "",
    "address": "",
    "city": ""
  },
  {
    "osm_id": 2340078795,
    "category": "shopping",
    "subcategory": "marketplace",
    "lat": 18.0735661,
    "lon": 102.5335169,
    "name": "ຕະຫຼາດນາຊາຍທອງ",
    "name_en": "Naxatythong Market",
    "operator": "",
    "brand": "",
    "opening_hours": "",
    "address": "",
    "city": ""
  },
  {
    "osm_id": 2341617019,
    "category": "shopping",
    "subcategory": "supermarket",
    "lat": 10.8295261,
    "lon": 106.6820675,
    "name": "Co.opmart Phan Văn Trị",
    "name_en": "",
    "operator": "",
    "brand": "",
    "opening_hours": "",
    "address": "Đường Phan Văn Trị",
    "city": "TP.HCM"
  },
  {
    "osm_id": 2341630281,
    "category": "shopping",
    "subcategory": "marketplace",
    "lat": 10.86014,
    "lon": 106.6917046,
    "name": "Chợ Vườn Lài",
    "name_en": "",
    "operator": "",
    "brand": "",
    "opening_hours": "",
    "address": "",
    "city": ""
  },
  {
    "osm_id": 2383979771,
    "category": "shopping",
    "subcategory": "supermarket",
    "lat": 11.5733545,
    "lon": 104.8968303,
    "name": "Thai Huot Market",
    "name_en": "",
    "operator": "",
    "brand": "",
    "opening_hours": "",
    "address": "Street 606",
    "city": ""
  },
  {
    "osm_id": 2388920311,
    "category": "shopping",
    "subcategory": "marketplace",
    "lat": 17.4330143,
    "lon": 102.7910226,
    "name": "ตลาดรังษิณา",
    "name_en": "Rang Si Nan Market",
    "operator": "",
    "brand": "",
    "opening_hours": "",
    "address": "",
    "city": ""
  },
  {
    "osm_id": 2394628421,
    "category": "shopping",
    "subcategory": "supermarket",
    "lat": 13.7673582,
    "lon": 109.2216969,
    "name": "CoopMart Qui Nhơn",
    "name_en": "",
    "operator": "",
    "brand": "",
    "opening_hours": "",
    "address": "Đ.Lê Duẩn, P.Lý Thường Kiệt, TP.Qui Nhơn, T.Bình Định",
    "city": ""
  },
  {
    "osm_id": 2407031809,
    "category": "shopping",
    "subcategory": "supermarket",
    "lat": 13.9623111,
    "lon": 108.0189083,
    "name": "Lương Hữu Nghị",
    "name_en": "",
    "operator": "",
    "brand": "",
    "opening_hours": "",
    "address": "Nơ Trang Long",
    "city": ""
  },
  {
    "osm_id": 2418695280,
    "category": "shopping",
    "subcategory": "supermarket",
    "lat": 11.4988664,
    "lon": 104.8924044,
    "name": "",
    "name_en": "",
    "operator": "",
    "brand": "",
    "opening_hours": "",
    "address": "",
    "city": ""
  },
  {
    "osm_id": 2423060973,
    "category": "shopping",
    "subcategory": "supermarket",
    "lat": 17.6749526,
    "lon": 103.2534019,
    "name": "Lotus's",
    "name_en": "Lotus's",
    "operator": "Tesco Lotus",
    "brand": "Lotus's",
    "opening_hours": "Mo-Su 07:00-21:00",
    "address": "",
    "city": ""
  },
  {
    "osm_id": 2447240038,
    "category": "shopping",
    "subcategory": "supermarket",
    "lat": 20.8613717,
    "lon": 106.685392,
    "name": "Intimex",
    "name_en": "",
    "operator": "",
    "brand": "",
    "opening_hours": "",
    "address": "Phố Minh Khai",
    "city": ""
  },
  {
    "osm_id": 2452785710,
    "category": "shopping",
    "subcategory": "supermarket",
    "lat": 20.2502749,
    "lon": 105.9743236,
    "name": "",
    "name_en": "",
    "operator": "",
    "brand": "",
    "opening_hours": "",
    "address": "",
    "city": ""
  },
  {
    "osm_id": 2458141596,
    "category": "shopping",
    "subcategory": "supermarket",
    "lat": 10.7708442,
    "lon": 106.6529897,
    "name": "Siêu Thị Co.opMart - Phú Thọ",
    "name_en": "",
    "operator": "",
    "brand": "",
    "opening_hours": "",
    "address": "",
    "city": ""
  },
  {
    "osm_id": 2469803677,
    "category": "shopping",
    "subcategory": "supermarket",
    "lat": 18.2954775,
    "lon": 109.3884832,
    "name": "",
    "name_en": "",
    "operator": "",
    "brand": "",
    "opening_hours": "",
    "address": "",
    "city": ""
  },
  {
    "osm_id": 2471647464,
    "category": "shopping",
    "subcategory": "marketplace",
    "lat": 20.9858966,
    "lon": 105.7937986,
    "name": "Chợ Phùng Khoang",
    "name_en": "",
    "operator": "",
    "brand": "",
    "opening_hours": "",
    "address": "",
    "city": ""
  },
  {
    "osm_id": 2476530994,
    "category": "shopping",
    "subcategory": "marketplace",
    "lat": 20.8396502,
    "lon": 106.6692226,
    "name": "Chợ Đôn",
    "name_en": "",
    "operator": "",
    "brand": "",
    "opening_hours": "",
    "address": "",
    "city": ""
  },
  {
    "osm_id": 2477234843,
    "category": "shopping",
    "subcategory": "marketplace",
    "lat": 20.8437707,
    "lon": 106.6934285,
    "name": "Đoàn Kết",
    "name_en": "",
    "operator": "",
    "brand": "",
    "opening_hours": "",
    "address": "",
    "city": ""
  },
  {
    "osm_id": 2483285849,
    "category": "shopping",
    "subcategory": "supermarket",
    "lat": 20.8362487,
    "lon": 106.7011908,
    "name": "K Mart",
    "name_en": "",
    "operator": "",
    "brand": "",
    "opening_hours": "",
    "address": "Văn Cao",
    "city": ""
  },
  {
    "osm_id": 2487478559,
    "category": "shopping",
    "subcategory": "marketplace",
    "lat": 20.8314819,
    "lon": 106.6986688,
    "name": "Chợ Đình",
    "name_en": "",
    "operator": "",
    "brand": "",
    "opening_hours": "",
    "address": "",
    "city": ""
  },
  {
    "osm_id": 2487491123,
    "category": "shopping",
    "subcategory": "supermarket",
    "lat": 20.8490184,
    "lon": 106.6643708,
    "name": "Máy Đá",
    "name_en": "",
    "operator": "",
    "brand": "",
    "opening_hours": "",
    "address": "",
    "city": ""
  },
  {
    "osm_id": 2487502732,
    "category": "shopping",
    "subcategory": "marketplace",
    "lat": 18.279767,
    "lon": 109.5749266,
    "name": "三亚新鸿港国际商品交易中心",
    "name_en": "",
    "operator": "",
    "brand": "",
    "opening_hours": "",
    "address": "",
    "city": ""
  },
  {
    "osm_id": 2487786278,
    "category": "shopping",
    "subcategory": "marketplace",
    "lat": 20.8879285,
    "lon": 106.6894343,
    "name": "Chợ Hữu Quan",
    "name_en": "",
    "operator": "",
    "brand": "",
    "opening_hours": "",
    "address": "",
    "city": ""
  },
  {
    "osm_id": 2490798795,
    "category": "shopping",
    "subcategory": "marketplace",
    "lat": 20.8495373,
    "lon": 106.6646285,
    "name": "Chợ Lam Sơn",
    "name_en": "",
    "operator": "",
    "brand": "",
    "opening_hours": "",
    "address": "",
    "city": ""
  },
  {
    "osm_id": 2494601461,
    "category": "shopping",
    "subcategory": "supermarket",
    "lat": 20.8981653,
    "lon": 106.6793507,
    "name": "chợ Hôm",
    "name_en": "",
    "operator": "",
    "brand": "",
    "opening_hours": "",
    "address": "",
    "city": ""
  },
  {
    "osm_id": 2494987923,
    "category": "shopping",
    "subcategory": "marketplace",
    "lat": 20.8680728,
    "lon": 106.6608866,
    "name": "Chợ rau quả đầu mối",
    "name_en": "",
    "operator": "",
    "brand": "",
    "opening_hours": "",
    "address": "",
    "city": ""
  },
  {
    "osm_id": 2497090038,
    "category": "shopping",
    "subcategory": "marketplace",
    "lat": 20.8363022,
    "lon": 106.7038022,
    "name": "Chợ cóc",
    "name_en": "",
    "operator": "",
    "brand": "",
    "opening_hours": "",
    "address": "",
    "city": ""
  },
  {
    "osm_id": 2500323197,
    "category": "shopping",
    "subcategory": "supermarket",
    "lat": 12.6917465,
    "lon": 108.0615075,
    "name": "CO.OP Mart",
    "name_en": "",
    "operator": "",
    "brand": "",
    "opening_hours": "",
    "address": "",
    "city": ""
  },
  {
    "osm_id": 2501683919,
    "category": "shopping",
    "subcategory": "supermarket",
    "lat": 12.6872885,
    "lon": 108.0549618,
    "name": "INTIMEX",
    "name_en": "",
    "operator": "",
    "brand": "",
    "opening_hours": "",
    "address": "",
    "city": ""
  },
  {
    "osm_id": 2504087842,
    "category": "shopping",
    "subcategory": "supermarket",
    "lat": 12.6820388,
    "lon": 108.0441154,
    "name": "Vincom",
    "name_en": "",
    "operator": "",
    "brand": "",
    "opening_hours": "",
    "address": "",
    "city": ""
  },
  {
    "osm_id": 2508702433,
    "category": "shopping",
    "subcategory": "supermarket",
    "lat": 11.2248068,
    "lon": 108.732227,
    "name": "Chợ cũ",
    "name_en": "",
    "operator": "",
    "brand": "",
    "opening_hours": "",
    "address": "",
    "city": ""
  },
  {
    "osm_id": 2555412316,
    "category": "shopping",
    "subcategory": "supermarket",
    "lat": 13.3541489,
    "lon": 103.8539391,
    "name": "N's BASE",
    "name_en": "",
    "operator": "",
    "brand": "",
    "opening_hours": "",
    "address": "The Alley",
    "city": "Siem Reap"
  },
  {
    "osm_id": 2562709153,
    "category": "shopping",
    "subcategory": "supermarket",
    "lat": 18.2344117,
    "lon": 109.6395656,
    "name": "世纪华联超市",
    "name_en": "Centuary",
    "operator": "世纪华联",
    "brand": "",
    "opening_hours": "09:00-23:00",
    "address": "亚龙湾路 - Yalongwan Road",
    "city": "三亚"
  },
  {
    "osm_id": 2564163556,
    "category": "shopping",
    "subcategory": "supermarket",
    "lat": 12.6886063,
    "lon": 108.0569859,
    "name": "Siêu thị Đồng giá Daiso",
    "name_en": "",
    "operator": "DAISO VIETNAM",
    "brand": "",
    "opening_hours": "",
    "address": "",
    "city": ""
  },
  {
    "osm_id": 2574221770,
    "category": "shopping",
    "subcategory": "supermarket",
    "lat": 11.5446057,
    "lon": 104.9320972,
    "name": "Lucky",
    "name_en": "",
    "operator": "",
    "brand": "",
    "opening_hours": "",
    "address": "",
    "city": ""
  },
  {
    "osm_id": 2575364782,
    "category": "shopping",
    "subcategory": "marketplace",
    "lat": 19.6326393,
    "lon": 103.5578198,
    "name": "",
    "name_en": "",
    "operator": "",
    "brand": "",
    "opening_hours": "",
    "address": "",
    "city": ""
  },
  {
    "osm_id": 2579767142,
    "category": "shopping",
    "subcategory": "supermarket",
    "lat": 16.241736,
    "lon": 103.8155917,
    "name": "ร้านสมสุขการช่าง",
    "name_en": "",
    "operator": "www.facebook.com/SomsukKarChang.BanChiangMai",
    "brand": "",
    "opening_hours": "",
    "address": "ตำบลเชียงใหม่ อำเภอโพธิ์ชัย",
    "city": "จังหวัดร้อยเอ็ด"
  },
  {
    "osm_id": 2583154757,
    "category": "shopping",
    "subcategory": "supermarket",
    "lat": 11.5735743,
    "lon": 104.8794425,
    "name": "Superstore",
    "name_en": "Superstore",
    "operator": "",
    "brand": "",
    "opening_hours": "",
    "address": "",
    "city": ""
  },
  {
    "osm_id": 2593670953,
    "category": "shopping",
    "subcategory": "supermarket",
    "lat": 10.8419863,
    "lon": 106.6436933,
    "name": "Co-opmart Liên Hiệp Thành phố Hồ Chí Minh",
    "name_en": "",
    "operator": "Co-opmart Liên hiệp Thành phố Hồ Chí Minh",
    "brand": "",
    "opening_hours": "",
    "address": "",
    "city": ""
  },
  {
    "osm_id": 2594884417,
    "category": "shopping",
    "subcategory": "marketplace",
    "lat": 19.4542784,
    "lon": 103.2084643,
    "name": "Dry Goods Market",
    "name_en": "",
    "operator": "",
    "brand": "",
    "opening_hours": "",
    "address": "",
    "city": ""
  },
  {
    "osm_id": 2594892804,
    "category": "shopping",
    "subcategory": "marketplace",
    "lat": 19.4491262,
    "lon": 103.1896282,
    "name": "Nam Ngam Market",
    "name_en": "",
    "operator": "",
    "brand": "",
    "opening_hours": "",
    "address": "",
    "city": ""
  },
  {
    "osm_id": 2598517874,
    "category": "shopping",
    "subcategory": "marketplace",
    "lat": 10.0280618,
    "lon": 105.7870934,
    "name": "Chợ Cần Thơ",
    "name_en": "",
    "operator": "",
    "brand": "",
    "opening_hours": "",
    "address": "",
    "city": ""
  },
  {
    "osm_id": 2598517882,
    "category": "shopping",
    "subcategory": "marketplace",
    "lat": 10.0238579,
    "lon": 105.7617067,
    "name": "Chợ Hưng Lợi",
    "name_en": "",
    "operator": "",
    "brand": "",
    "opening_hours": "",
    "address": "",
    "city": ""
  },
  {
    "osm_id": 2613253484,
    "category": "shopping",
    "subcategory": "marketplace",
    "lat": 10.3327205,
    "lon": 106.0353954,
    "name": "Floating Market Cai Be",
    "name_en": "",
    "operator": "",
    "brand": "",
    "opening_hours": "",
    "address": "",
    "city": ""
  },
  {
    "osm_id": 2614656903,
    "category": "shopping",
    "subcategory": "marketplace",
    "lat": 10.5070586,
    "lon": 107.1722679,
    "name": "Chợ Phước Hưng",
    "name_en": "",
    "operator": "",
    "brand": "",
    "opening_hours": "",
    "address": "",
    "city": ""
  },
  {
    "osm_id": 2621712847,
    "category": "shopping",
    "subcategory": "marketplace",
    "lat": 17.3994083,
    "lon": 104.820282,
    "name": "Fresh Market",
    "name_en": "",
    "operator": "",
    "brand": "",
    "opening_hours": "",
    "address": "",
    "city": ""
  },
  {
    "osm_id": 2621712848,
    "category": "shopping",
    "subcategory": "marketplace",
    "lat": 17.4003391,
    "lon": 104.8234177,
    "name": "Fresh Market",
    "name_en": "",
    "operator": "",
    "brand": "",
    "opening_hours": "",
    "address": "",
    "city": ""
  },
  {
    "osm_id": 2623036409,
    "category": "shopping",
    "subcategory": "supermarket",
    "lat": 10.8014349,
    "lon": 106.7468623,
    "name": "Big C",
    "name_en": "",
    "operator": "",
    "brand": "Big C",
    "opening_hours": "",
    "address": "",
    "city": ""
  },
  {
    "osm_id": 2624565896,
    "category": "shopping",
    "subcategory": "marketplace",
    "lat": 13.2007734,
    "lon": 108.2062419,
    "name": "",
    "name_en": "",
    "operator": "",
    "brand": "",
    "opening_hours": "",
    "address": "",
    "city": ""
  },
  {
    "osm_id": 2640750682,
    "category": "shopping",
    "subcategory": "supermarket",
    "lat": 10.3488416,
    "lon": 107.0763427,
    "name": "Siêu thị trái cây",
    "name_en": "",
    "operator": "",
    "brand": "",
    "opening_hours": "",
    "address": "Trưng Nhị",
    "city": ""
  },
  {
    "osm_id": 2640754139,
    "category": "shopping",
    "subcategory": "supermarket",
    "lat": 10.3489046,
    "lon": 107.0765327,
    "name": "Hồng Lập Thành",
    "name_en": "",
    "operator": "",
    "brand": "",
    "opening_hours": "",
    "address": "Trưng Nhị",
    "city": ""
  },
  {
    "osm_id": 2641109127,
    "category": "shopping",
    "subcategory": "marketplace",
    "lat": 10.3549981,
    "lon": 107.0787341,
    "name": "Chợ Cô Giang",
    "name_en": "Co Giang Market",
    "operator": "",
    "brand": "",
    "opening_hours": "",
    "address": "Cô Giang",
    "city": ""
  },
  {
    "osm_id": 2645445837,
    "category": "shopping",
    "subcategory": "marketplace",
    "lat": 10.4090241,
    "lon": 107.2213214,
    "name": "Chợ Long Hải",
    "name_en": "Long Hai Market",
    "operator": "",
    "brand": "",
    "opening_hours": "",
    "address": "",
    "city": ""
  },
  {
    "osm_id": 2645445903,
    "category": "shopping",
    "subcategory": "marketplace",
    "lat": 10.3917835,
    "lon": 107.2324257,
    "name": "Chợ Hải Sơn",
    "name_en": "Hai Son Market",
    "operator": "",
    "brand": "",
    "opening_hours": "",
    "address": "",
    "city": ""
  },
  {
    "osm_id": 2647229839,
    "category": "shopping",
    "subcategory": "supermarket",
    "lat": 10.3486004,
    "lon": 107.0815849,
    "name": "Winmart",
    "name_en": "",
    "operator": "",
    "brand": "",
    "opening_hours": "",
    "address": "Trương Công Định",
    "city": ""
  },
  {
    "osm_id": 2649575440,
    "category": "shopping",
    "subcategory": "marketplace",
    "lat": 10.3414775,
    "lon": 107.0760829,
    "name": "Chợ Xóm Lưới",
    "name_en": "Xom Luoi Market",
    "operator": "",
    "brand": "",
    "opening_hours": "",
    "address": "",
    "city": ""
  },
  {
    "osm_id": 2651249939,
    "category": "shopping",
    "subcategory": "supermarket",
    "lat": 16.403134,
    "lon": 102.8384876,
    "name": "หมูซิ่งบ้านตูม",
    "name_en": "",
    "operator": "",
    "brand": "",
    "opening_hours": "Mo-Su,PH 08:00-22:00",
    "address": "",
    "city": ""
  },
  {
    "osm_id": 2655437295,
    "category": "shopping",
    "subcategory": "restaurant",
    "lat": 10.9389807,
    "lon": 108.1107206,
    "name": "Chi tran",
    "name_en": "",
    "operator": "",
    "brand": "",
    "opening_hours": "",
    "address": "Tôn Đức Thắng",
    "city": ""
  },
  {
    "osm_id": 2670181019,
    "category": "shopping",
    "subcategory": "supermarket",
    "lat": 18.2624363,
    "lon": 109.4910537,
    "name": "沃美超市",
    "name_en": "Nanguo Supermarket",
    "operator": "沃美超市",
    "brand": "",
    "opening_hours": "",
    "address": "迎宾路 - Yingbin Lu",
    "city": "三亚"
  },
  {
    "osm_id": 2678645088,
    "category": "shopping",
    "subcategory": "supermarket",
    "lat": 18.2939114,
    "lon": 109.4357725,
    "name": "升升超市 - UP MART",
    "name_en": "U²-Mart",
    "operator": "",
    "brand": "",
    "opening_hours": "Mo-Su 08:30-22:30",
    "address": "",
    "city": ""
  },
  {
    "osm_id": 2679829460,
    "category": "shopping",
    "subcategory": "marketplace",
    "lat": 14.7242724,
    "lon": 102.0233335,
    "name": "Morning Market",
    "name_en": "",
    "operator": "",
    "brand": "",
    "opening_hours": "",
    "address": "",
    "city": ""
  },
  {
    "osm_id": 2679829473,
    "category": "shopping",
    "subcategory": "marketplace",
    "lat": 14.7259493,
    "lon": 102.0184515,
    "name": "Evening Market",
    "name_en": "",
    "operator": "",
    "brand": "",
    "opening_hours": "",
    "address": "",
    "city": ""
  },
  {
    "osm_id": 2697708944,
    "category": "shopping",
    "subcategory": "marketplace",
    "lat": 20.4127397,
    "lon": 104.0492685,
    "name": "",
    "name_en": "",
    "operator": "",
    "brand": "",
    "opening_hours": "",
    "address": "",
    "city": ""
  },
  {
    "osm_id": 2699342629,
    "category": "shopping",
    "subcategory": "supermarket",
    "lat": 16.4277834,
    "lon": 102.8607816,
    "name": "เซ็นโทซ่ามาร์เก็ต",
    "name_en": "Sentosa Market",
    "operator": "",
    "brand": "",
    "opening_hours": "10:00-21:00",
    "address": "",
    "city": ""
  },
  {
    "osm_id": 2699514464,
    "category": "shopping",
    "subcategory": "supermarket",
    "lat": 13.7464625,
    "lon": 102.3178495,
    "name": "Lotus's",
    "name_en": "Lotus's",
    "operator": "",
    "brand": "Lotus's",
    "opening_hours": "",
    "address": "",
    "city": ""
  },
  {
    "osm_id": 2702449979,
    "category": "shopping",
    "subcategory": "marketplace",
    "lat": 12.4997051,
    "lon": 105.1265413,
    "name": "Kampong Thmar Market",
    "name_en": "",
    "operator": "",
    "brand": "",
    "opening_hours": "",
    "address": "",
    "city": ""
  },
  {
    "osm_id": 2727010778,
    "category": "shopping",
    "subcategory": "marketplace",
    "lat": 10.6064831,
    "lon": 107.0539223,
    "name": "Chợ Ngọc Hà",
    "name_en": "Ngoc Ha Market",
    "operator": "",
    "brand": "",
    "opening_hours": "",
    "address": "",
    "city": ""
  },
  {
    "osm_id": 2730532695,
    "category": "shopping",
    "subcategory": "marketplace",
    "lat": 10.6213121,
    "lon": 107.0549842,
    "name": "Chợ Mỹ Xuân",
    "name_en": "My Xuan Market",
    "operator": "",
    "brand": "",
    "opening_hours": "",
    "address": "",
    "city": ""
  },
  {
    "osm_id": 2746829200,
    "category": "shopping",
    "subcategory": "marketplace",
    "lat": 10.5618414,
    "lon": 107.0607272,
    "name": "Chợ Ông Trịnh",
    "name_en": "",
    "operator": "",
    "brand": "",
    "opening_hours": "",
    "address": "",
    "city": ""
  },
  {
    "osm_id": 2746829243,
    "category": "shopping",
    "subcategory": "marketplace",
    "lat": 10.5517087,
    "lon": 107.0672289,
    "name": "Chợ Phước Lộc",
    "name_en": "",
    "operator": "",
    "brand": "",
    "opening_hours": "",
    "address": "",
    "city": ""
  },
  {
    "osm_id": 2746829362,
    "category": "shopping",
    "subcategory": "marketplace",
    "lat": 10.5291568,
    "lon": 107.0793992,
    "name": "Chợ Lam Sơn",
    "name_en": "",
    "operator": "",
    "brand": "",
    "opening_hours": "",
    "address": "",
    "city": ""
  },
  {
    "osm_id": 2775866908,
    "category": "shopping",
    "subcategory": "marketplace",
    "lat": 19.8899691,
    "lon": 102.1457447,
    "name": "Phonsavanh",
    "name_en": "Phonsavanh Local Market",
    "operator": "",
    "brand": "",
    "opening_hours": "",
    "address": "",
    "city": ""
  },
  {
    "osm_id": 2776788997,
    "category": "shopping",
    "subcategory": "marketplace",
    "lat": 10.831297,
    "lon": 106.7840226,
    "name": "Chợ Tăng Nhơn Phú B",
    "name_en": "",
    "operator": "",
    "brand": "",
    "opening_hours": "",
    "address": "",
    "city": ""
  },
  {
    "osm_id": 2784715280,
    "category": "shopping",
    "subcategory": "marketplace",
    "lat": 17.6668189,
    "lon": 104.003124,
    "name": "Cattle Market",
    "name_en": "",
    "operator": "",
    "brand": "",
    "opening_hours": "",
    "address": "",
    "city": ""
  },
  {
    "osm_id": 2784715292,
    "category": "shopping",
    "subcategory": "supermarket",
    "lat": 17.5882132,
    "lon": 103.9807641,
    "name": "",
    "name_en": "Tesco Lotus",
    "operator": "",
    "brand": "",
    "opening_hours": "",
    "address": "",
    "city": ""
  },
  {
    "osm_id": 2791967488,
    "category": "shopping",
    "subcategory": "supermarket",
    "lat": 17.3878561,
    "lon": 104.7673955,
    "name": "makro",
    "name_en": "",
    "operator": "",
    "brand": "",
    "opening_hours": "",
    "address": "",
    "city": ""
  },
  {
    "osm_id": 2802749870,
    "category": "shopping",
    "subcategory": "marketplace",
    "lat": 10.662504,
    "lon": 107.169844,
    "name": "Chợ Láng Lớn",
    "name_en": "Lang Lon Market",
    "operator": "",
    "brand": "",
    "opening_hours": "",
    "address": "",
    "city": ""
  },
  {
    "osm_id": 2817112818,
    "category": "shopping",
    "subcategory": "marketplace",
    "lat": 10.7866226,
    "lon": 106.7383719,
    "name": "Chợ Bình Khánh",
    "name_en": "",
    "operator": "",
    "brand": "",
    "opening_hours": "",
    "address": "",
    "city": ""
  },
  {
    "osm_id": 2882847649,
    "category": "shopping",
    "subcategory": "supermarket",
    "lat": 17.9865518,
    "lon": 102.5896483,
    "name": "Mini Grocery Store (open@6am, Close@8pm)",
    "name_en": "",
    "operator": "",
    "brand": "",
    "opening_hours": "",
    "address": "",
    "city": ""
  },
  {
    "osm_id": 2900426553,
    "category": "shopping",
    "subcategory": "marketplace",
    "lat": 23.1574191,
    "lon": 102.7473139,
    "name": "",
    "name_en": "",
    "operator": "",
    "brand": "",
    "opening_hours": "",
    "address": "",
    "city": ""
  },
  {
    "osm_id": 2915591053,
    "category": "shopping",
    "subcategory": "marketplace",
    "lat": 16.4275806,
    "lon": 102.8685557,
    "name": "ตลาดเย็นหนองใหญ่",
    "name_en": "",
    "operator": "",
    "brand": "",
    "opening_hours": "",
    "address": "",
    "city": ""
  },
  {
    "osm_id": 2921379633,
    "category": "shopping",
    "subcategory": "supermarket",
    "lat": 9.9241955,
    "lon": 106.3398494,
    "name": "Co-opMart TraVinh",
    "name_en": "",
    "operator": "",
    "brand": "",
    "opening_hours": "",
    "address": "",
    "city": ""
  },
  {
    "osm_id": 2935305001,
    "category": "shopping",
    "subcategory": "supermarket",
    "lat": 10.539246,
    "lon": 107.072205,
    "name": "Cho Phuoc Hoa",
    "name_en": "",
    "operator": "",
    "brand": "",
    "opening_hours": "",
    "address": "",
    "city": ""
  },
  {
    "osm_id": 2935318501,
    "category": "shopping",
    "subcategory": "marketplace",
    "lat": 10.501393,
    "lon": 107.094132,
    "name": "Cat Hai",
    "name_en": "",
    "operator": "",
    "brand": "",
    "opening_hours": "",
    "address": "",
    "city": ""
  },
  {
    "osm_id": 2947357933,
    "category": "shopping",
    "subcategory": "marketplace",
    "lat": 10.38719,
    "lon": 106.919392,
    "name": "Chợ Hải Sản Hàng Dương",
    "name_en": "",
    "operator": "",
    "brand": "",
    "opening_hours": "",
    "address": "",
    "city": ""
  },
  {
    "osm_id": 2948812333,
    "category": "shopping",
    "subcategory": "supermarket",
    "lat": 10.784261,
    "lon": 106.69973,
    "name": "Citimart",
    "name_en": "",
    "operator": "",
    "brand": "",
    "opening_hours": "",
    "address": "",
    "city": ""
  },
  {
    "osm_id": 2950151531,
    "category": "shopping",
    "subcategory": "supermarket",
    "lat": 11.5570589,
    "lon": 104.9229932,
    "name": "Soun Ly Houy Mart",
    "name_en": "",
    "operator": "",
    "brand": "",
    "opening_hours": "",
    "address": "Trasak Paem (St: 63)",
    "city": "Phnom Penh"
  },
  {
    "osm_id": 2963848902,
    "category": "shopping",
    "subcategory": "supermarket",
    "lat": 10.9296362,
    "lon": 108.1056205,
    "name": "Siêu thị Coop Mart Phan Thiết",
    "name_en": "",
    "operator": "",
    "brand": "",
    "opening_hours": "",
    "address": "",
    "city": ""
  },
  {
    "osm_id": 2975422434,
    "category": "shopping",
    "subcategory": "marketplace",
    "lat": 10.688255,
    "lon": 107.020542,
    "name": "Market",
    "name_en": "",
    "operator": "",
    "brand": "",
    "opening_hours": "",
    "address": "",
    "city": ""
  },
  {
    "osm_id": 2980477636,
    "category": "shopping",
    "subcategory": "marketplace",
    "lat": 10.564926,
    "lon": 107.057295,
    "name": "Song Vinh",
    "name_en": "",
    "operator": "",
    "brand": "",
    "opening_hours": "",
    "address": "",
    "city": ""
  },
  {
    "osm_id": 2980501933,
    "category": "shopping",
    "subcategory": "marketplace",
    "lat": 10.501611,
    "lon": 107.091956,
    "name": "Thon Cat Hai",
    "name_en": "",
    "operator": "",
    "brand": "",
    "opening_hours": "",
    "address": "",
    "city": ""
  },
  {
    "osm_id": 2980508635,
    "category": "shopping",
    "subcategory": "marketplace",
    "lat": 10.518056,
    "lon": 107.083885,
    "name": "Ap Phuoc Hiep",
    "name_en": "",
    "operator": "",
    "brand": "",
    "opening_hours": "",
    "address": "",
    "city": ""
  },
  {
    "osm_id": 2980508638,
    "category": "shopping",
    "subcategory": "marketplace",
    "lat": 10.549543,
    "lon": 107.068669,
    "name": "Ap Phuoc Loc-Tan Phuoc",
    "name_en": "",
    "operator": "",
    "brand": "",
    "opening_hours": "",
    "address": "",
    "city": ""
  },
  {
    "osm_id": 2980508739,
    "category": "shopping",
    "subcategory": "marketplace",
    "lat": 10.692771,
    "lon": 107.0163,
    "name": "Ap 3",
    "name_en": "",
    "operator": "",
    "brand": "",
    "opening_hours": "",
    "address": "",
    "city": ""
  },
  {
    "osm_id": 2980508740,
    "category": "shopping",
    "subcategory": "marketplace",
    "lat": 10.706494,
    "lon": 107.006428,
    "name": "Ấp Tập Phước",
    "name_en": "",
    "operator": "",
    "brand": "",
    "opening_hours": "",
    "address": "",
    "city": ""
  },
  {
    "osm_id": 2980510135,
    "category": "shopping",
    "subcategory": "marketplace",
    "lat": 10.514503,
    "lon": 107.086023,
    "name": "Thon Phuoc Long",
    "name_en": "",
    "operator": "",
    "brand": "",
    "opening_hours": "",
    "address": "",
    "city": ""
  },
  {
    "osm_id": 2980510334,
    "category": "shopping",
    "subcategory": "marketplace",
    "lat": 10.535353,
    "lon": 107.074088,
    "name": "Ap Hai son",
    "name_en": "",
    "operator": "",
    "brand": "",
    "opening_hours": "",
    "address": "",
    "city": ""
  },
  {
    "osm_id": 2980513434,
    "category": "shopping",
    "subcategory": "marketplace",
    "lat": 10.630567,
    "lon": 107.047455,
    "name": "Ap Phu Ha",
    "name_en": "",
    "operator": "",
    "brand": "",
    "opening_hours": "",
    "address": "",
    "city": ""
  },
  {
    "osm_id": 2980546433,
    "category": "shopping",
    "subcategory": "marketplace",
    "lat": 10.686698,
    "lon": 107.020589,
    "name": "Ấp Long Phú",
    "name_en": "",
    "operator": "",
    "brand": "",
    "opening_hours": "",
    "address": "",
    "city": ""
  },
  {
    "osm_id": 2980559933,
    "category": "shopping",
    "subcategory": "marketplace",
    "lat": 10.72898,
    "lon": 106.989644,
    "name": "Ấp Đất Mới",
    "name_en": "",
    "operator": "",
    "brand": "",
    "opening_hours": "",
    "address": "",
    "city": ""
  },
  {
    "osm_id": 2982303967,
    "category": "shopping",
    "subcategory": "supermarket",
    "lat": 11.5834225,
    "lon": 104.8992265,
    "name": "Lucky",
    "name_en": "",
    "operator": "",
    "brand": "",
    "opening_hours": "",
    "address": "",
    "city": ""
  },
  {
    "osm_id": 2983991174,
    "category": "shopping",
    "subcategory": "marketplace",
    "lat": 16.6011448,
    "lon": 104.7842333,
    "name": "KM 8 Market",
    "name_en": "",
    "operator": "",
    "brand": "",
    "opening_hours": "",
    "address": "9W",
    "city": "Savannakhet"
  },
  {
    "osm_id": 2985559534,
    "category": "shopping",
    "subcategory": "marketplace",
    "lat": 16.408181,
    "lon": 107.6779,
    "name": "Chợ Phú Bài",
    "name_en": "",
    "operator": "",
    "brand": "",
    "opening_hours": "",
    "address": "",
    "city": ""
  },
  {
    "osm_id": 2985592978,
    "category": "shopping",
    "subcategory": "marketplace",
    "lat": 16.2703345,
    "lon": 107.8802772,
    "name": "Chợ cầu Hai",
    "name_en": "",
    "operator": "",
    "brand": "",
    "opening_hours": "",
    "address": "",
    "city": ""
  },
  {
    "osm_id": 2985686200,
    "category": "shopping",
    "subcategory": "supermarket",
    "lat": 16.5787552,
    "lon": 104.7588864,
    "name": "Savan ITECC",
    "name_en": "",
    "operator": "Lao World Co., Ltd",
    "brand": "",
    "opening_hours": "",
    "address": "",
    "city": "Savannakhet"
  },
  {
    "osm_id": 2989429895,
    "category": "shopping",
    "subcategory": "supermarket",
    "lat": 11.561744,
    "lon": 104.871929,
    "name": "Lucky",
    "name_en": "",
    "operator": "",
    "brand": "",
    "opening_hours": "",
    "address": "",
    "city": ""
  },
  {
    "osm_id": 3008454322,
    "category": "shopping",
    "subcategory": "supermarket",
    "lat": 14.9624064,
    "lon": 102.0174371,
    "name": "",
    "name_en": "",
    "operator": "",
    "brand": "",
    "opening_hours": "",
    "address": "",
    "city": ""
  },
  {
    "osm_id": 3008477533,
    "category": "shopping",
    "subcategory": "supermarket",
    "lat": 14.9645,
    "lon": 102.018461,
    "name": "Prasomshap",
    "name_en": "",
    "operator": "none",
    "brand": "",
    "opening_hours": "",
    "address": "",
    "city": "Ban Mai"
  },
  {
    "osm_id": 3019486925,
    "category": "shopping",
    "subcategory": "supermarket",
    "lat": 17.9431011,
    "lon": 102.6266506,
    "name": "K-Mart",
    "name_en": "",
    "operator": "",
    "brand": "",
    "opening_hours": "",
    "address": "",
    "city": ""
  },
  {
    "osm_id": 3052066614,
    "category": "shopping",
    "subcategory": "marketplace",
    "lat": 21.4475803,
    "lon": 109.1159277,
    "name": "贵兴市场",
    "name_en": "",
    "operator": "",
    "brand": "",
    "opening_hours": "",
    "address": "",
    "city": ""
  },
  {
    "osm_id": 3066707467,
    "category": "shopping",
    "subcategory": "supermarket",
    "lat": 11.6117709,
    "lon": 102.9827922,
    "name": "Pun Pun Mart",
    "name_en": "",
    "operator": "",
    "brand": "",
    "opening_hours": "",
    "address": "",
    "city": ""
  },
  {
    "osm_id": 3066723245,
    "category": "shopping",
    "subcategory": "supermarket",
    "lat": 11.6083645,
    "lon": 102.9806739,
    "name": "TN Mart",
    "name_en": "",
    "operator": "",
    "brand": "",
    "opening_hours": "",
    "address": "",
    "city": ""
  },
  {
    "osm_id": 3083207175,
    "category": "shopping",
    "subcategory": "marketplace",
    "lat": 17.4074286,
    "lon": 102.7857264,
    "name": "ตลาดเทศบาล",
    "name_en": "Community Market",
    "operator": "",
    "brand": "",
    "opening_hours": "",
    "address": "",
    "city": ""
  },
  {
    "osm_id": 3108158476,
    "category": "shopping",
    "subcategory": "marketplace",
    "lat": 10.0060066,
    "lon": 105.7509847,
    "name": "Chợ Cái Răng",
    "name_en": "Cai Rang Market",
    "operator": "",
    "brand": "",
    "opening_hours": "",
    "address": "",
    "city": ""
  },
  {
    "osm_id": 3150526966,
    "category": "shopping",
    "subcategory": "supermarket",
    "lat": 21.029586,
    "lon": 105.8553923,
    "name": "WinMart",
    "name_en": "",
    "operator": "",
    "brand": "WinMart",
    "opening_hours": "",
    "address": "Phố Lý Thái Tổ",
    "city": ""
  },
  {
    "osm_id": 3157309483,
    "category": "shopping",
    "subcategory": "supermarket",
    "lat": 21.4735561,
    "lon": 109.110825,
    "name": "和安超市",
    "name_en": "",
    "operator": "",
    "brand": "",
    "opening_hours": "",
    "address": "",
    "city": ""
  },
  {
    "osm_id": 3158868252,
    "category": "shopping",
    "subcategory": "supermarket",
    "lat": 21.4566391,
    "lon": 109.1001449,
    "name": "和安超市",
    "name_en": "",
    "operator": "",
    "brand": "",
    "opening_hours": "",
    "address": "",
    "city": ""
  },
  {
    "osm_id": 3158868475,
    "category": "shopping",
    "subcategory": "supermarket",
    "lat": 21.4632993,
    "lon": 109.1055703,
    "name": "闽辉超市",
    "name_en": "",
    "operator": "",
    "brand": "",
    "opening_hours": "",
    "address": "",
    "city": ""
  },
  {
    "osm_id": 3163972838,
    "category": "shopping",
    "subcategory": "marketplace",
    "lat": 12.1980308,
    "lon": 107.5761827,
    "name": "Chợ cũ NamNJang",
    "name_en": "",
    "operator": "",
    "brand": "",
    "opening_hours": "",
    "address": "",
    "city": ""
  },
  {
    "osm_id": 3167856571,
    "category": "shopping",
    "subcategory": "supermarket",
    "lat": 21.9688577,
    "lon": 108.6217885,
    "name": "沃尔玛",
    "name_en": "Walmart",
    "operator": "",
    "brand": "沃尔玛",
    "opening_hours": "",
    "address": "钦州湾大道",
    "city": "钦州市"
  },
  {
    "osm_id": 3167864177,
    "category": "shopping",
    "subcategory": "supermarket",
    "lat": 21.962541,
    "lon": 108.6196354,
    "name": "协盛超市",
    "name_en": "",
    "operator": "",
    "brand": "",
    "opening_hours": "",
    "address": "",
    "city": ""
  },
  {
    "osm_id": 3167902367,
    "category": "shopping",
    "subcategory": "supermarket",
    "lat": 21.9584523,
    "lon": 108.6185173,
    "name": "商业大厦",
    "name_en": "",
    "operator": "",
    "brand": "",
    "opening_hours": "",
    "address": "",
    "city": ""
  },
  {
    "osm_id": 3228069674,
    "category": "shopping",
    "subcategory": "marketplace",
    "lat": 20.8444201,
    "lon": 106.4704846,
    "name": "Chợ Hệ",
    "name_en": "",
    "operator": "",
    "brand": "",
    "opening_hours": "",
    "address": "",
    "city": ""
  },
  {
    "osm_id": 3231373234,
    "category": "shopping",
    "subcategory": "marketplace",
    "lat": 20.8317976,
    "lon": 106.4554981,
    "name": "Chợ Bầu",
    "name_en": "",
    "operator": "",
    "brand": "",
    "opening_hours": "",
    "address": "",
    "city": ""
  },
  {
    "osm_id": 3247613245,
    "category": "shopping",
    "subcategory": "supermarket",
    "lat": 22.8162942,
    "lon": 108.3309912,
    "name": "北京华联",
    "name_en": "BHG",
    "operator": "",
    "brand": "北京华联",
    "opening_hours": "",
    "address": "",
    "city": ""
  },
  {
    "osm_id": 3250446061,
    "category": "shopping",
    "subcategory": "marketplace",
    "lat": 22.826138,
    "lon": 108.328631,
    "name": "广西展览馆",
    "name_en": "",
    "operator": "",
    "brand": "",
    "opening_hours": "",
    "address": "",
    "city": ""
  },
  {
    "osm_id": 3251819112,
    "category": "shopping",
    "subcategory": "supermarket",
    "lat": 21.5315509,
    "lon": 107.9560804,
    "name": "G Mart",
    "name_en": "DIEN MAY XANH",
    "operator": "",
    "brand": "",
    "opening_hours": "",
    "address": "",
    "city": ""
  },
  {
    "osm_id": 3253145168,
    "category": "shopping",
    "subcategory": "supermarket",
    "lat": 23.369961,
    "lon": 103.3963249,
    "name": "振兴购物广场",
    "name_en": "",
    "operator": "",
    "brand": "",
    "opening_hours": "",
    "address": "",
    "city": ""
  },
  {
    "osm_id": 3253203519,
    "category": "shopping",
    "subcategory": "supermarket",
    "lat": 23.3742375,
    "lon": 103.4018225,
    "name": "蒙自市物资交易市场",
    "name_en": "",
    "operator": "",
    "brand": "",
    "opening_hours": "",
    "address": "",
    "city": ""
  },
  {
    "osm_id": 3253205274,
    "category": "shopping",
    "subcategory": "supermarket",
    "lat": 23.3805741,
    "lon": 103.3610167,
    "name": "发莲超市",
    "name_en": "",
    "operator": "",
    "brand": "",
    "opening_hours": "",
    "address": "",
    "city": ""
  },
  {
    "osm_id": 3253223040,
    "category": "shopping",
    "subcategory": "supermarket",
    "lat": 23.3689594,
    "lon": 103.390349,
    "name": "金方购物广场",
    "name_en": "",
    "operator": "",
    "brand": "",
    "opening_hours": "",
    "address": "",
    "city": ""
  },
  {
    "osm_id": 3254595841,
    "category": "shopping",
    "subcategory": "marketplace",
    "lat": 20.9018305,
    "lon": 106.428567,
    "name": "Chợ Hương",
    "name_en": "",
    "operator": "",
    "brand": "",
    "opening_hours": "",
    "address": "",
    "city": ""
  },
  {
    "osm_id": 3271133101,
    "category": "shopping",
    "subcategory": "supermarket",
    "lat": 22.6743268,
    "lon": 106.2571258,
    "name": "",
    "name_en": "",
    "operator": "",
    "brand": "",
    "opening_hours": "",
    "address": "",
    "city": ""
  },
  {
    "osm_id": 3282237826,
    "category": "shopping",
    "subcategory": "marketplace",
    "lat": 23.0658884,
    "lon": 104.9903862,
    "name": "Market",
    "name_en": "",
    "operator": "",
    "brand": "",
    "opening_hours": "",
    "address": "",
    "city": ""
  },
  {
    "osm_id": 3284635842,
    "category": "shopping",
    "subcategory": "marketplace",
    "lat": 10.2717802,
    "lon": 105.9643042,
    "name": "Cho An Binh",
    "name_en": "",
    "operator": "",
    "brand": "",
    "opening_hours": "",
    "address": "",
    "city": ""
  },
  {
    "osm_id": 3285245184,
    "category": "shopping",
    "subcategory": "supermarket",
    "lat": 18.4021554,
    "lon": 109.8473433,
    "name": "南国市场",
    "name_en": "",
    "operator": "",
    "brand": "",
    "opening_hours": "",
    "address": "",
    "city": ""
  },
  {
    "osm_id": 3294303620,
    "category": "shopping",
    "subcategory": "supermarket",
    "lat": 21.3920509,
    "lon": 103.012188,
    "name": "Thực phẩm sạch Tâm Đỏ",
    "name_en": "",
    "operator": "",
    "brand": "",
    "opening_hours": "",
    "address": "",
    "city": ""
  },